lat,lon,name,notes,added_at,added_by
45.46806583003343,9.177668581548524,Piazzale Cadorna Est1,
45.468027268471516,9.17744662875355,Piazzale Cadorna Est2,
45.467989448324865,9.17695510250343,Piazzale Cadorna West1,
45.4680285393238,9.17663836274877,Piazzale Cadorna West2,
45.46772489618326,9.176828093050323,Piazzale Cadorna South1,
45.4677913328671,9.173858201691766,Piazza Virgilio Est,
45.46759253032219,9.179814453351748,Foro Buonaparte - Via Ricasoli Est,
45.4676028740004,9.179284543564416,Foro Buonaparte - Via Ricasoli West,
45.46792286577095,9.181731372883384,Largo Cairoli - Foro Buonaparte West,
45.46830942143114,9.182523965630908,Largo Cairoli Est,
45.468181108317765,9.182012001284045,Largo Cairoli West,
45.468623237258335,9.183211532266409,Largo Cairoli - Via Cusani South,
45.46857856271902,9.182982873957958,Largo Cairoli - Via Cusani North,
45.46891382,9.18296034,Largo Cairoli - Foro Buonaparte Est,,2026-03-04T12:54:45.437245+00:00,daniel
45.468888,9.18499348,Via Cusani / Via Ponte Vetero Est,,2026-03-04T13:17:14.294911+00:00,daniel
45.4691184,9.18529794,Via Ponte Vetero / Via Cusani North,,2026-03-04T13:17:44.619040+00:00,daniel
45.46876162,9.18541403,Via Broletto / Via Cusani,,2026-03-04T13:18:18.324126+00:00,daniel
45.46563142,9.18690876,Piazza Cordusio est,,2026-03-04T13:20:10.849948+00:00,daniel
45.4675674,9.19011688,Piazza della Scala north,,2026-03-04T13:21:00.551357+00:00,daniel
45.4672327,9.18981881,Piazza della scala south,,2026-03-04T13:21:12.271190+00:00,daniel
45.47016421,9.19286458,Via Alessandro Manzoni / Via Monte Napoleone north,,2026-03-04T13:22:17.721571+00:00,daniel
45.4699315,9.19268477,Via Alessandro Manzoni / Via Monte Napoleone south,,2026-03-04T13:22:25.593802+00:00,daniel
45.47261218,9.19517884,Piazza Cavour north,,2026-03-04T13:23:05.208069+00:00,daniel
45.47217455,9.19502233,Piazza Cavour south,,2026-03-04T13:23:20.377469+00:00,daniel
45.47558954,9.19464894,Piazza Stati Uniti d'America south,,2026-03-04T13:23:54.188271+00:00,daniel
45.47600435,9.19474344,Piazza Stati Uniti d'America north,,2026-03-04T13:24:02.485484+00:00,daniel
45.47813898,9.19733471,Piazza della Repubblica,,2026-03-04T13:25:15.677919+00:00,daniel
45.46640277,9.16490852,Piazzale Francesco Baracca / Corso Vercelli north,,2026-03-04T13:35:02.296704+00:00,daniel
45.46616476,9.16522262,Piazzale Francesco Baracca / Corso Vercelli est,,2026-03-04T13:35:27.819209+00:00,daniel
45.46619203,9.16445118,Piazzale Francesco Baracca / Corso Vercelli west,,2026-03-04T13:35:34.548472+00:00,daniel
45.46591836,9.16479462,Viale San Michele del Carso / Corso Vercelli south,,2026-03-04T13:36:06.905813+00:00,daniel
45.45959598,9.16564979,Viale Coni Zugna / Via Vincenzo Foppa north,,2026-03-04T13:38:12.144531+00:00,daniel
45.45940544,9.16600558,Viale Coni Zugna / Via Vincenzo Foppa south,,2026-03-04T13:38:19.065475+00:00,daniel
45.45766108,9.16859845,Viale Coni Zugna / Via Andrea Solari north,,2026-03-04T13:39:21.395013+00:00,daniel
45.45746902,9.16893859,Viale Coni Zugna / Via Andrea Solari south,,2026-03-04T13:39:29.805522+00:00,daniel
45.45728655,9.1691566,Viale Coni Zugna / Via Andrea Solari south 2,,2026-03-04T13:39:43.650194+00:00,daniel
45.45707726,9.16907396,Viale Coni Zugna / Via Andrea Solari west,,2026-03-04T13:40:06.600308+00:00,daniel
45.45692154,9.16976343,Viale Coni Zugna / Via Arcangelo Ghisleri,,2026-03-04T13:41:10.714375+00:00,daniel
45.45536466,9.17208084,Viale Coni Zugna / Corso Cristoforo Colombo north,,2026-03-04T13:41:54.304720+00:00,daniel
45.45530489,9.17269975,Viale Coni Zugna / Corso Cristoforo Colombo est,,2026-03-04T13:42:08.030799+00:00,daniel
45.45504105,9.17266548,Viale Coni Zugna / Corso Cristoforo Colombo south,,2026-03-04T13:42:16.648055+00:00,daniel
45.45495542,9.17223225,Viale Coni Zugna / Corso Cristoforo Colombo west,,2026-03-04T13:43:01.527407+00:00,daniel
45.44250698,9.1234571,Via Francesco Gonin / Via Pietro Giordani west,,2026-03-04T13:45:15.021466+00:00,daniel
45.44271832,9.12403591,Via Francesco Gonin / Via Pietro Giordani est,,2026-03-04T13:45:25.479313+00:00,daniel
45.44413352,9.12849084,Via Francesco Gonin / Piazzale Tirana west,,2026-03-04T13:46:07.537686+00:00,daniel
45.44467351,9.13007135,Via Giambellino / Piazzale Tirana est,,2026-03-04T13:46:32.543053+00:00,daniel
45.4445089,9.12964947,Piazzale Tirana,,2026-03-04T13:47:14.938217+00:00,daniel
45.44427368,9.12882317,Piazzale Tirana west,,2026-03-04T13:47:51.901997+00:00,daniel
45.44685126,9.13690079,Via Giambellino / Largo Giambellino west,,2026-03-04T13:50:50.429803+00:00,daniel
45.44698344,9.13722334,Via Giambellino / Largo Giambellino west 2,,2026-03-04T13:50:58.550256+00:00,daniel
45.44705588,9.13753249,Via Giambellino / Largo Giambellino est 2,,2026-03-04T13:51:09.494256+00:00,daniel
45.44719606,9.1378738,Via Giambellino / Largo Giambellino est,,2026-03-04T13:51:16.913894+00:00,daniel
45.44768061,9.13946679,Largo Giambellino / Largo Gelsomini est,,2026-03-04T13:52:48.609403+00:00,daniel
45.44790274,9.1400672,Largo Giambellino / Largo Gelsomini est 2,,2026-03-04T13:53:01.175004+00:00,daniel
45.47989971,9.20401096,Piazza Cincinnato north,,2026-03-06T00:04:11.208801+00:00,daniel
45.47878845,9.20293339,Via Lazzaretto Viale Tunisia north,,2026-03-06T00:05:23.196614+00:00,daniel
45.47832962,9.20255788,Via Lazzaretto Viale Tunisia south,,2026-03-06T00:05:43.445893+00:00,daniel
45.4783716,9.20319155,Viale Tunisia Via Lazzaretto est,,2026-03-06T00:06:01.916723+00:00,daniel
45.47665721,9.2068588,Viale Tunisia / Corso Buenos Aires West,,2026-03-06T00:06:51.231491+00:00,daniel
45.47644428,9.20739859,Viale Tunisia / Corso Buenos Aires Est,,2026-03-06T00:07:02.415900+00:00,daniel
45.47607695,9.20811944,Viale regina Giovanna 2,,2026-03-06T00:09:19.910442+00:00,daniel
45.47596611,9.20843326,Viale Regina Giovanna 3,,2026-03-06T00:09:46.082079+00:00,daniel
45.47479245,9.21090357,P.Za Otto Novembre Est,,2026-03-06T00:11:00.358926+00:00,daniel
45.4746152,9.21137094,P.Za Otto Novembre West,,2026-03-06T00:11:07.585889+00:00,daniel
45.47312556,9.21454936,Piazza Maria Adelaide di Savoia Est,,2026-03-06T00:12:09.910751+00:00,daniel
45.4728702,9.21455942,Piazza Maria Adelaide di Savoia South,,2026-03-06T00:12:27.432067+00:00,daniel
45.47301519,9.21536341,Piazza Maria Adelaide di Savoia North,,2026-03-06T00:12:45.559641+00:00,daniel
45.47300384,9.21491213,Piazza Maria Adelaide di Savoia Center West,,2026-03-06T00:12:55.608170+00:00,daniel
45.47292951,9.21508044,Piazza Maria Adelaide di Savoia Center Est,,2026-03-06T00:13:06.621092+00:00,daniel
45.47295397,9.21499327,Piazza Maria Adelaide di Savoia Center,,2026-03-06T00:13:19.816600+00:00,daniel
45.47328126,9.21668977,Via Degli Scipioni,,2026-03-06T00:14:13.623650+00:00,daniel
45.47321776,9.21748102,Piazza Ascoli Center south,,2026-03-06T00:14:56.918781+00:00,daniel
45.47363672,9.2176567,Piazza Ascoli Center north,,2026-03-06T00:15:51.743347+00:00,daniel
45.47379673,9.21794504,Piazza Ascoli North,,2026-03-06T00:16:13.504351+00:00,daniel
45.47359236,9.21746626,Piazza Ascoli Center north 2,,2026-03-06T00:16:55.471070+00:00,daniel
45.47107952,9.22341809,Piazza Ferravilla,,2026-03-06T00:20:35.028995+00:00,daniel
45.47093474,9.22419928,Via Beato Angelico,,2026-03-06T00:21:06.339100+00:00,daniel
45.47093342,9.22395989,Via Beato Angelico 1,,2026-03-06T00:21:22.695404+00:00,daniel
45.4709234,9.22987282,Via Beato Angelico / Via Giovanni Antonio Amadeo West,,2026-03-06T00:22:51.046100+00:00,daniel
45.4709658,9.23043475,Via Beato Angelico / Via Giovanni Antonio Amadeo Est,,2026-03-06T00:22:56.294350+00:00,daniel
45.47096485,9.23485905,Via Giovanni Antonio Amadeo / Via Temistocle Calzecchi Est,,2026-03-06T00:24:14.977913+00:00,daniel
45.47099209,9.23533112,Via Giovanni Antonio Amadeo / Via Temistocle Calzecchi Est,,2026-03-06T00:24:20.912832+00:00,daniel
45.4724593,9.2114266,Via Nino Bixio / Via Pisacane Est,,2026-03-06T00:28:58.171918+00:00,daniel
45.47238171,9.21089619,Via Nino Bixio / Via Pisacane West,,2026-03-06T00:29:05.205071+00:00,daniel
45.47200652,9.20693591,Via Nino Bixio / Via Piave Est,,2026-03-06T00:29:37.224560+00:00,daniel
45.47212877,9.20660533,Via Nino Bixio / Via Piave North,,2026-03-06T00:30:05.553299+00:00,daniel
45.47175759,9.20666501,Via Nino Bixio / Via Piave South,,2026-03-06T00:30:28.089742+00:00,daniel
45.47086794,9.20672268,Via Piave / Via Bernardi North,,2026-03-06T00:31:19.867467+00:00,daniel
45.47058207,9.20680784,Via Piave / Via Bernardi South,,2026-03-06T00:31:47.656575+00:00,daniel
45.46827675,9.20694999,Piazza Tricolore North,,2026-03-06T00:34:43.082563+00:00,daniel
45.46753464,9.20709819,Piazza Tricolore South,,2026-03-06T00:35:24.262108+00:00,daniel
45.46272867,9.20754544,Piazza Cinque Giornate North,,2026-03-06T00:37:19.920869+00:00,daniel
45.46197857,9.2076581,Piazza Cinque Giornate South,,2026-03-06T00:37:30.929491+00:00,daniel
45.46226967,9.20805775,Piazza Cinque Giornate Est,,2026-03-06T00:37:38.207251+00:00,daniel
45.46209829,9.20731746,Piazza Cinque Giornate Center Est,,2026-03-06T00:38:10.019821+00:00,daniel
45.46245025,9.20698218,Piazza Cinque Giornate Center West,,2026-03-06T00:38:17.298286+00:00,daniel
45.46226195,9.20640081,Piazza Cinque Giornate West,,2026-03-06T00:38:43.347449+00:00,daniel
45.46189218,9.20674011,Piazza Cinque Giornate Very South,,2026-03-06T00:39:27.971040+00:00,daniel
45.46183067,9.20737579,Piazza Cinque Giornate Very South 2,,2026-03-06T00:39:51.801428+00:00,daniel
45.46231555,9.2033726,C.So P.Ta Vittoria (Camera Del Lavoro),,2026-03-06T00:41:08.595777+00:00,daniel
45.46229288,9.20280933,28 C.so di Porta Vittoria,,2026-03-06T00:41:29.044701+00:00,daniel
45.46232299,9.20247674,27 C.so di Porta Vittoria,,2026-03-06T00:41:43.482659+00:00,daniel
45.46230888,9.20192957,22 C.so di Porta Vittoria,,2026-03-06T00:42:00.597497+00:00,daniel
45.46235217,9.20114905,C.so di Porta Vittoria Tribunale,,2026-03-06T00:42:19.171759+00:00,daniel
45.46233053,9.20069844,C.so di Porta Vittoria Tribunale West,,2026-03-06T00:42:27.813949+00:00,daniel
45.46240487,9.19828042,Corso Porta Vittoria / Via Francesco Sforza Est,,2026-03-06T00:43:13.254432+00:00,daniel
45.46256766,9.19788614,Corso Porta Vittoria / Via Francesco Sforza West,,2026-03-06T00:43:19.072722+00:00,daniel
45.46286784,9.19743016,L.Go Augusto Est,,2026-03-06T00:44:02.555989+00:00,daniel
45.46303229,9.19677436,L.Go Augusto West,,2026-03-06T00:44:07.125648+00:00,daniel
45.46303229,9.19583693,Via Verziere Est,,2026-03-06T00:44:21.668490+00:00,daniel
45.46295796,9.19513151,Corso Europa North,,2026-03-06T00:44:48.647928+00:00,daniel
45.46292508,9.19517711,Corso Europa South,,2026-03-06T00:44:55.646113+00:00,daniel
45.46279898,9.19457763,Corso Europa West,,2026-03-06T00:45:16.854802+00:00,daniel
45.46259668,9.19410959,Via Larga / Piazza Santo Stefano,,2026-03-06T00:45:34.552167+00:00,daniel
45.462354,9.19366166,VIa Larga / Via Bergamini,,2026-03-06T00:45:47.236734+00:00,daniel
45.46261009,9.19370592,Via San Clemente / Via Larga Est,,2026-03-06T00:46:10.270551+00:00,daniel
45.46257982,9.19366971,Via San Clemente / Via Larga West,,2026-03-06T00:46:16.565199+00:00,daniel
45.46118426,9.19171035,Via Larga / Via Flavio Baracchini Est,,2026-03-06T00:46:44.657506+00:00,daniel
45.46092046,9.19138312,Via Larga / Via Flavio Baracchini West,,2026-03-06T00:46:56.573432+00:00,daniel
45.46086964,9.19123426,Via Larga / Via Panano Est,,2026-03-06T00:47:13.742153+00:00,daniel
45.46081619,9.1912128,Via Larga / Via Panano West,,2026-03-06T00:47:18.413272+00:00,daniel
45.46073714,9.19075012,Via Larga / Via Panano West West,,2026-03-06T00:47:22.995029+00:00,daniel
45.46117457,9.18906167,Via Albricci / Piazza Missori Est,,2026-03-06T00:48:06.753353+00:00,daniel
45.46150019,9.18848097,Piazza Missori North,,2026-03-06T00:48:19.534666+00:00,daniel
45.46093703,9.18843135,Piazza Missori South 2,,2026-03-06T00:48:29.951876+00:00,daniel
45.46120247,9.18857552,Piazza Missori South,,2026-03-06T00:48:45.775681+00:00,daniel
45.46062032,9.18830395,Piazza Missori South 3,,2026-03-06T00:49:18.130317+00:00,daniel
45.46039094,9.18828383,Piazza Missori South 4,,2026-03-06T00:49:24.651535+00:00,daniel
45.46043579,9.18854333,Piazza Missori South Est,,2026-03-06T00:49:35.533888+00:00,daniel
45.46050406,9.18840554,Piazza Missori South Est 2,,2026-03-06T00:49:44.820837+00:00,daniel
45.45755923,9.18755963,Corso Italia / Piazza Sant'Eufemia North,,2026-03-06T00:50:17.013745+00:00,daniel
45.45721037,9.18755695,Corso Italia / Piazza Sant'Eufemia South,,2026-03-06T00:50:23.769365+00:00,daniel
45.45622125,9.18743223,Corso Italia / Via Santa Sofia North,,2026-03-06T00:50:50.905877+00:00,daniel
45.45586332,9.18739066,Corso Italia / Via Santa Sofia South,,2026-03-06T00:50:55.938820+00:00,daniel
45.45348186,9.18693602,Corso Italia / Via Marco Burigozzo North,,2026-03-06T00:51:27.672946+00:00,daniel
45.45321042,9.18694407,Corso Italia / Via Marco Burigozzo South,,2026-03-06T00:51:31.809040+00:00,daniel
45.45262247,9.18679655,Corso Italia / Viale Gian Galeazzo North,,2026-03-06T00:51:49.225455+00:00,daniel
45.45215458,9.18672748,Viale Gian Galeazzo North,,2026-03-06T00:52:20.680624+00:00,daniel
45.45205721,9.18660611,Piazzale Porta Ludovica Center,,2026-03-06T00:52:33.836357+00:00,daniel
45.45174903,9.18708891,Porta Ludovica Est,,2026-03-06T00:52:44.087867+00:00,daniel
45.45186157,9.18618836,Porta L,,2026-03-06T00:52:51.214825+00:00,daniel
45.4515561,9.18656319,Porta Ludovica South,,2026-03-06T00:53:08.811237+00:00,daniel
45.44977923,9.18596976,Via Pietro Teuliè North,,2026-03-06T00:53:47.602121+00:00,daniel
45.4494736,9.18584168,Via Gian Carlo Castelbarco,,2026-03-06T00:54:07.868990+00:00,daniel
45.44906595,9.18565795,Via Gian Carlo Castelbarco South 1,,2026-03-06T00:54:27.585131+00:00,daniel
45.44889782,9.1856432,Via Gian Carlo Castelbarco South 2,,2026-03-06T00:54:32.596339+00:00,daniel
45.425233348604294,9.203486364223796,Via Ripamonti/via Chopin (sud)
45.425671289646,9.203326306656436,Via Ripamonti/via Chopin (north)
45.42699786753833,9.202990015150135,Via ripamonti/via Muzio Attenedolo (south)
45.42715034344489,9.20290485501563,Via Ripamonti/via Muzio Attenedolo (north)
45.429111735018445,9.202428500183435,Via Ripamonti/via Val di Sole (south)
45.42955933658122,9.202267375498298,Via Ripamonti/via Val di Sole (north)
45.43138907607858,9.201727796965354,Via Ripamonti/via Noto (south)
45.4318719777184,9.20154596451712,Via Ripamonti/via Noto (north)
45.43297626671417,9.20123149047587,Via Ripamonti/via Sibari (south)
45.43339176563796,9.20111481438085,via Ripamonti/via Sibari (north)
45.43583691269326,9.20067964340132,via Ripamonti/via Quaranta (south)
45.43637478863954,9.20053960462494,via Ripamonti/via Quaranta (north)
45.438608849884986,9.200153549003817,via Ripamonti/viale Ortles (south)
45.439159838632044,9.199991969836065,via Ripamonti/viale ortles (north)
45.44318722399301,9.198980646015253,Via Ripamonti/via Lorenzini (south)
45.443572412884095,9.198824881518723,via Ripamonti/via Lorenzini (north)
45.446204853987304,9.198146513074134,via Ripamonti/ viale Isonzo (south)
45.446812416308305,9.19793078389724,via Ripamonti/viale Isonzo (north)
45.44835451669343,9.197549880205115,via Ripamonti/via Bellezza (south)
45.44896209345064,9.19733850947644,via Ripamonti/via Bellezza (north)
45.45071975473157,9.196912596130074,via Ripamonti/viale Sabotino (south)
45.451284786887435,9.196730256005315,via Ripamonti/viale Sabotino (north)
45.451735884368965,9.196636560318852,via Ripamonti/viale Beatrice d'Este (south)
45.452237829959984,9.19647931775902,corso di Porta Vigentina/viale Beatrice d'Este (north)
45.45602789577072,9.195539202475413,largo Crocetta/corso di Porta Romana (south)
45.456416414434564,9.195234101198182,largo Crocetta/corso di Porta Romana (north)
45.45747718704605,9.193609451749053,corso di Porta Romana/via santa Sofia (south)
45.45774716793867,9.193134030204947,corso di Porta Romana/via Santa Sofia (north)
45.458264081345334,9.192355765553188,corso di Porta Romana/piazza San Nazario in Brolo (south)
45.45836903231465,9.192154110248484,corso di Porta Romana/piazza San Nazario in Brolo (north)
45.45969145570091,9.18995521030102,corso di Porta Romana/piazza Velasca (south)
45.45990028300627,9.189511304703396,corso di Porta Romana/piazza Velasca (north)
45.4622368361485,9.21109835807309,corso 22 marzo/piazza s.Maria del Suffragio (west)
45.46226129673736,9.211708336524834,corso 22 marzo/piazza s.Maria del Suffragio (east)
45.46221363302343,9.213248267794297,corso 22 marzo/via Mameli (west)
45.46224371334907,9.213757269701956,corso 22 marzo/via Mameli (east)
45.4622184171805,9.214396834255966,corso 22 marzo/via Cadore (west)
45.46224024549264,9.215088863017286,corso 22 marzo/via Cadore (east)
45.46220913941252,9.216913084950509,corso 22 marzo/ viale Umbria (west)
45.46221948626749,9.217857508846413,corso 22 marzo/viale Umbria (east)
45.4621580997219,9.22342952298118,corso 22 marzo/viale Campania (west)
45.46215377181723,9.223707911048603,corso 22 marzo/viale Campania (centre-west1)
45.46217916866455,9.22382458714432,corso 22 marzo/viale Campania (centre west2)
45.462150949944586,9.22400563625836,corso 22 marzo/viale Campania (centre-east1)
45.46217728741699,9.224103536890398,corso 22 marzo/viale Campania (centre-east2)
45.46217634679318,9.22441467314564,viale Corsica/viale campania (east)
45.462177682360426,9.22756446188486,viale Corsica/via Grasselli (west)
45.46225442746963,9.227900436246742,viale Corsica/via Grasselli (centre)
45.462285023006785,9.22817070292108,viale Corsica/via Grasselli (east)
45.46224046138024,9.229892447411656,viale Corsica/via Lomellina (west)
45.46226942912585,9.230572313083776,viale Corsica/via Lomellina (east)
45.46221918649769,9.232246806000914,viale Corsica/via Negroli (west)
45.46212774961808,9.232912733988147,viale Corsica/via Negroli (east)
45.46206468724657,9.234963941134636,viale Corsica/largo Rodari (west)
45.46205622161485,9.235430645517498,viale Corsica/largo Rodari (east)
45.46199155098398,9.237737347530206,viale Corsica/via Repetti (west)
45.46161529896318,9.238158454354076,viale Corsica/via repetti (south)
45.459363066006276,9.239261490857992,via Marco Bruto (northwest)
45.45911644575295,9.239645395460037,via Marco Bruto (southeast)
45.45840490591263,9.240562733866545,via Marco Bruto/piazza Ovidio (north1)
45.45816635639861,9.240947037560105,via Marco Bruto/piazza ovidio (north2)
45.45766721403337,9.24157056936926,via Marco Bruto/piazza ovidio (centre)
45.45735141178708,9.241999993495096,via Marcio Bruto/piazza ovidio (south1)
45.45711832768188,9.242368937423578,via Marco Bruto/piazza Ovidio (south2)
45.45578242984854,9.244131447749233,via mecenate/via Maderna (north)
45.45548170028004,9.244592264162454,via Mecenate/via Maderna (south)
45.45106538068623,9.250550937551228,via Mecenate/via Fantoli (north)
45.45077714743043,9.251005534288737,via Mecenate/via Fantoli (south)
45.447656958794994,9.255196357256873,via Mecenate/viale Ungheria (north)
45.447128243682926,9.255283489619327,via Mecenate/viale Ungheria (southwest)
45.4460576803422,9.251145650911392,viale Ungheria/largo guerrieri di Gonzaga (east)
45.44601257866682,9.25078489378773,viale Ungheria/largo guerrieri di Gonzaga (west)
45.463538268079866,9.188075728504673,Torino/orefici (south)
45.46400767585384,9.187876324550405,Torino/orefici (north)
45.46274128990272,9.187037967235025,Torino/asole (north)
45.46244999550004,9.186729538435717,Torino/asole (south)
45.46226064023128,9.186444975343004,torino/lupetta (north)
45.46202501380479,9.186198882643314,torino/lupetta (south)
45.46047121818191,9.181664996469895,torino/porta ticinese (north)
45.46017492936469,9.181295406627834,carrobbio (centre)
45.45998112908593,9.181228798155727,torino/porta ticinese (south)
45.45878457181019,9.181060558783514,colonne di san lorenzo (north)
45.45753951256576,9.180965467288873,porta ticinese/molino delle armi (north)
45.457184897954996,9.180933491433589,porta ticinese/molino delle armi (south)
45.45327145971936,9.180308602342134,porta ticinese/d'annunzio (north)
45.45282946493174,9.180305226739456,porta ticinese/d'annunzio (south)
45.45252077175474,9.180041386999909,arco di porta ticinese (west)
45.45185137695386,9.18013238842959,corso san gottardo/piazza 24 maggio (south)
45.44760329448853,9.179546387599348,corso san gottardo/pavia (north)
45.447124630064806,9.179553820732902,corso san gottardo/pavia (south)
45.44664517846849,9.179451631130068,corso san gottardo/largo mahler (north)
45.44646303354754,9.17946588495113,corso san gottardo/largo mahler (south)
45.44646303354754,9.17942108723091,corso san gottardo/tabacchi (north)
45.44613588550803,9.179406833411278,meda/ san gottardo/tabacchi (south)
45.443817580415526,9.179051097458155,meda/tibaldi (north)
45.44328082692607,9.179011675656037,meda/tibaldi (south)
45.43817301577957,9.178352821814736,meda/giovanni da cermenate (north)
45.43778293402953,9.178345328943257,meda/giovanni da cermenate (centre north)
45.43771141565069,9.178283638134026,meda/giovanni da cermenate (centre south)
45.43721029956579,9.178235265602863,montegani/giovanni da cermenate (south)
45.435148871280205,9.17797834086594,montegani/palmieri (north)
45.43478139368756,9.177968155794876,montegani/palmieri (south)
45.43324685693721,9.177741784996039,montegani/neera (north)
45.43285122726114,9.177728441281724,montegani/neera (south)
45.430841987620795,9.177535514013453,montegani/abbiategrasso (north)
45.43034953838855,9.17759100472169,montegani/abbiategrasso (south)
45.43022732870077,9.177566142205675,abbiategrasso (centre)
45.43012637808444,9.177615170604035,abiategrasso (centre2)
45.430080559599595,9.17758591748967,abbiategrasso (centre3)
45.42980149191579,9.177602650702097,abbiategrasso/missaglia
45.427141867146474,9.177258944936169,missaglia/boifava (north)
45.42667826732163,9.177235138908753,missaglia/boifava (south)
45.42315961144937,9.17691928273014,missaglia/ de' andrè (north)
45.42286077457929,9.176925696247526,missaglia/ de' andrè (south)
45.41865782764682,9.175453859155661,missaglia/ de ruggiero (north)
45.418351643864945,9.175429371261448,missaglia/ de ruggiero (south)
45.414517719816544,9.174845647265006,missaglia/feraboli (north)
45.41421452067372,9.17482172298563,missaglia/feraboli (south)
45.41062659602903,9.174389859059637,missaglia/saponaro (north)
45.410239632567475,9.174431336710404,missagli/saponaro (north)
45.403618028953254,9.174502666081162,missaglia/cappio del 3
45.440936812299014,9.11749693155104,molinetto di lorenteggio/cappio del 14 (west)
45.440826704223035,9.118180436377894,molinetto di lorenteggio/cappio del 14 (east)
45.443368359524065,9.126128532123808,gonin (altezza civico 16-west)
45.44347514370096,9.126366577139038,gonin (altezza civico 16-east)
45.44901460787383,9.143592858477799,giambellino/brunelleschi (lato ovest-west)
45.449163121018216,9.143967415519237,giambellino/brunelleschi (lato ovest-east)
45.449159609614895,9.144034987778136,giambellino/brunelleschi (lato est-west)
45.449326360768026,9.144466569281954,giambellino/brunelleschi (lato est-east)
45.45129905109782,9.150657393403563,giambellino/tolstoj (west)
45.451473996196434,9.151116639565174,giambellino/tolstoj (east)
45.45234333059652,9.153875301073501,piazza napoli (west)
45.45259104981335,9.15459435740751,piazza napoli (east)
45.45390883427677,9.158740203486035,solari/stendhal (west)
45.454061425893535,9.159125681110933,solari/stendhal (east)
45.45566780716457,9.17327942874091,colombo/cantore (south)
45.4560157213037,9.17373308253304,colombo/cantore (north)
45.458629282075506,9.177619938043426,resistenza partigiana (south)
45.45890304719366,9.177963551656124,resistenza partigiana (north)
45.46008185016071,9.180886899857002,correnti/carrobbio (south)
45.46020956499356,9.181159624086073,correnti/carrobbio (north)
45.46355425792345,9.188098795582386,torino/orefici (south)
45.46369471976426,9.188169720921529,torino/orefici (north)
45.46392120985595,9.188159563831833,orefici (south)
45.464014535869374,9.187963134347225,orefici (north)
45.465080854975334,9.186486574294491,orefici/cordusio (south)
45.46535031658378,9.186316187289808,cordusio/orefici (north)
45.4654504789054,9.186424437442184,cordusio/mercanti (south)
45.46581317778842,9.186374429227353,broletto/cordusio (north)
45.471879682756956,9.18398564990828,mercato/tivoli (east)
45.47197872463664,9.183592010272516,mercato/tivoli (west)
45.47180755212208,9.182735898086829,tivoli/buonaparte (east)
45.471993483667234,9.182144337646895,lanza M2 (west)
45.4737116421963,9.181801695835297,legnano/gadio (south)
45.47397058724902,9.181717834765026,legnano/gadio (north)
45.47518861524968,9.181554642352582,legnano (fermata arena-south)
45.47529733981086,9.181493493171278,legnano (fermata arena-north)
45.47728413356412,9.181162987180484,legnano/elvezia
45.477982606907204,9.180465689588988,bramante/biancamano
45.48149094067088,9.179099372818195,bramante/sarpi (south)
45.48179207292718,9.178915773128253,bramante/sarpi (north)
45.483879995738626,9.177626420224824,bramante/cim. monumentale (south)
45.48458273063341,9.17685714584962,nono/cim. monumentale (north)
45.48746845848943,9.173072920890409,cenisio/messina (lato est-east)
45.48745398767546,9.172594555788931,cenisio/messina (lato est-west)
45.48749106357286,9.172238595465556,cenisio/messina (lato ovest-east)
45.48748588067289,9.1718116867568,cenisio/messina (lato ovest-west)
45.4875895729876,9.16901202629908,cenisio/fratelli induno (east)
45.487584040147354,9.168364742392125,cenisio/fratelli induno (west)
45.48766384168128,9.165876492133268,diocleziano (east)
45.487670756301036,9.16539048092179,diocleziano (west)
45.487896731593544,9.157094150315167,firenze (east)
45.48809183439524,9.15566176522049,firenze (west)
45.48989265865744,9.151766111248488,certosa/monte ceneri (east)
45.49015785942963,9.151219865729482,certosa/monte ceneri (west)
45.49162454021997,9.147986153529718,certosa/grosotto (east)
45.491792565309424,9.147517775616599,certosa/grosotto (west)
45.49251034573034,9.146011633536215,certosa/papa (east)
45.492683401040075,9.145537865087203,certosa/papa (west)
45.492862093710436,9.145214058809641,accursio (east)
45.49309859814019,9.144670341536228,certosa/accursio (west)
45.49534433202293,9.139761074676844,certosa/aniene (east)
45.49548252179814,9.13936394955043,certosa/aniene (west)
45.49811414624572,9.133631614538398,certosa/tibullo (east)
45.49828700118314,9.133167021397718,certosa/tibullo (west)
45.49935465411646,9.130950250456301,certosa/ghisallo (east)
45.49973282799447,9.130032339565847,certosa/ghisallo (west)
45.50122957640396,9.126770000387376,certosa/cormons (east)
45.501368509510215,9.126401046337492,certosa/cormons (west)
45.44807891981047,9.185351299374826,giambologna/tabacchi (north)
45.44775153150737,9.185291214326469,giambologna/tabacchi (south)
45.44503650418951,9.184408007236325,bibbiena/tibaldi (north)
45.444645869410984,9.184124864604062,bibbiena/tibaldi (south)
45.44434486405445,9.18295237804844,tibaldi/pezzotti (north)
45.443995630836255,9.182764913097158,tibaldi/pezzotti (south)
45.441101743193805,9.183141200782062,pezzotti/bonghi (north)
45.440820800849224,9.183203351520708,pezzotti/bonghi (south)
45.439450054570635,9.183272429508614,pezzotti/carcano (north)
45.43913772348849,9.183335678332904,pezzotti/carcano (south)
45.43802911320687,9.18339331123891,pezzotti/cermenate (north)
45.43776631163813,9.183446234961195,pezzotti/cermenate (south)
45.437552683541014,9.183428202653603,volvinio/cermenate (north)
45.437165466550226,9.183494946732916,volvinio/cermenate (south)
45.43504582507661,9.183632132309551,volvinio/palmieri (north)
45.43471851543842,9.18367684167496,volvinio/palmieri (south)
45.43380776942004,9.183714417071732,volvinio/agrippa (north)
45.43357888052462,9.183682915781652,volvinio/agrippa (south)
45.43309664848096,9.183370213605526,medeghino/agrippa (north)
45.432851779206246,9.183162982532638,medeghino/agrippa (south)
45.43052549162067,9.178550080947634,medeghino/abbiategrasso (north)
45.43034470617138,9.178279695513877,medeghino/abbiategrasso (south)
45.403067129187,9.174249011906577,missaglia/manduria (north)
45.40264497442906,9.174183890187104,missaglia/manduria (south)
45.398231665267424,9.173411935851949,curiel/maggi (north)
45.398089570129954,9.173439800394922,curiel/maggi (south)
45.394298373271525,9.172952474436935,curiel/lambro (north)
45.39414789769568,9.172976009713658,curiel/lambro (south)
45.3895717065401,9.172181462260792,curiel/isonzo (north)
45.3891104064188,9.172037592980965,curiel/isonzo (south)
45.47790297,9.19666444,Piazza della Repubblica South,,2026-03-08T17:06:35.039950+00:00,daniel
45.47820999,9.19738017,Piazza della Repubblica Est,,2026-03-08T17:06:53.909019+00:00,daniel
45.47857721,9.19648884,Piazza della Repubblica West,,2026-03-08T17:08:03.127658+00:00,daniel
45.47852124,9.19642651,Piazza della Repubblica West 2,,2026-03-08T17:08:13.772657+00:00,daniel
45.47797654,9.19648713,Piazza della Repubblica South 2,,2026-03-08T17:09:10.624562+00:00,daniel
45.47783078,9.19823139,Piazza della Repubblica / Viale Vittorio Veneto,,2026-03-08T17:11:15.482128+00:00,daniel
45.47788252,9.19785296,Piazza della Repubblica / Viale Vittorio Veneto West,,2026-03-08T17:11:34.904263+00:00,daniel
45.47969198,9.19423038,Viale Monte Santo,,2026-03-08T17:13:19.610301+00:00,daniel
45.47968256,9.19481731,Viale Monte Santo / Via Galileo Galilei,,2026-03-08T17:13:57.138371+00:00,daniel
45.4793699,9.19490833,Viale Monte Santo Est,,2026-03-08T17:14:29.199377+00:00,daniel
45.48015273,9.19328765,Viale Monte Santo / Piazzale Principessa Clotilde,,2026-03-08T17:15:25.305969+00:00,daniel
45.48024253,9.19281816,Piazzale Principessa Clotilde,,2026-03-08T17:15:37.604583+00:00,daniel
45.48063465,9.19075553,Viale Monte Grappa / Via Melchiorre Gioia,,2026-03-08T17:16:22.782973+00:00,daniel
45.48072162,9.19006152,Viale Monte Grappa / Via Melchiorre Gioia West,,2026-03-08T17:16:34.122322+00:00,daniel
45.48335685,9.18816453,Via Fratelli Castiglioni / Via Luigi Sturzo,,2026-03-08T17:18:08.033766+00:00,daniel
45.48346725,9.18753157,Viale Luigi Sturzo / P.za Sigmund Freud,,2026-03-08T17:18:48.764609+00:00,daniel
45.4835077,9.18708367,Viale Luigi Sturzo 22,,2026-03-08T17:19:27.361676+00:00,daniel
45.48354578,9.18686104,Viale Luigi Sturzo 41,,2026-03-08T17:19:44.333695+00:00,daniel
45.48572998,9.18246225,Via Farini - Via Ferrari North,,2026-03-08T17:21:35.325631+00:00,daniel
45.48568061,9.18245893,Via Farini - Via Ferrari South,,2026-03-08T17:21:45.757287+00:00,daniel
45.48569801,9.18180634,Via Farini - Cimitero Monumentale,,2026-03-08T17:22:09.129176+00:00,daniel
45.48545165,9.18202644,Via Farini - Via Ferrari South 2,,2026-03-08T17:22:25.399964+00:00,daniel
45.48601773,9.18209753,Via Farini North,,2026-03-08T17:22:49.942857+00:00,daniel
45.48454191,9.18040489,Piazzale Cimitero Monumentale Est,,2026-03-08T17:23:27.361549+00:00,daniel
45.48428198,9.17966991,Piazzale Cimitero Monumentale Center,,2026-03-08T17:24:37.870987+00:00,daniel
45.48423639,9.17938299,Piazzale Cimitero Monumentale West,,2026-03-08T17:24:53.511191+00:00,daniel
45.48428931,9.178103,P.zale Cimitero Monumentale Est,,2026-03-08T17:26:55.072159+00:00,daniel
45.48441647,9.17726737,P.zale Cimitero Monumentale Center 1,,2026-03-08T17:27:20.573661+00:00,daniel
45.4843624,9.1774318,P.zale Cimitero Monumentale Center 2,,2026-03-08T17:27:26.720511+00:00,daniel
45.48401918,9.1766075,P.zale Cimitero Monumentale / Via Procaccini / Via Nono,,2026-03-08T17:28:27.735269+00:00,daniel
45.48415696,9.17700872,P.zale Cimitero Monumentale Center / Via Nono,,2026-03-08T17:29:36.750967+00:00,daniel
45.48391289,9.17533934,Via Giulio Cesare Procaccini / Via Messina,,2026-03-08T17:30:21.915589+00:00,daniel
45.48381894,9.17449428,Via Giulio Cesare Procaccini 9,,2026-03-08T17:31:09.583250+00:00,daniel
45.48420023,9.17483346,Via Giulio Cesare Procaccini / Via Messina (dep),,2026-03-08T17:31:51.297211+00:00,daniel
45.48368541,9.17082683,Via Giulio Cesare Procaccini / Via Paolo Lomazzo Est,,2026-03-08T17:32:47.903812+00:00,daniel
45.48358056,9.17054518,Via Giulio Cesare Procaccini / Via Paolo Lomazzo West,,2026-03-08T17:33:10.279378+00:00,daniel
45.48201738,9.1681078,Via Giulio Cesare Procaccini / Via Piero della Francesca Est,,2026-03-08T17:34:15.032325+00:00,daniel
45.48171788,9.16768318,Via Giulio Cesare Procaccini / Via Piero della Francesca West,,2026-03-08T17:34:26.306318+00:00,daniel
45.48163366,9.16749936,Via Giulio Cesare Procaccini / Via Giulio Cesare Procaccini / Via Piero della Francesca Est Est,,2026-03-08T17:37:52.280833+00:00,daniel
45.48130459,9.16705423,Via Giulio Cesare Procaccini / Via Giulio Cesare Procaccini / Via Francesco Londonio West,,2026-03-08T17:38:20.040135+00:00,daniel
45.48099058,9.16652165,Via Giulio Cesare Procaccini / Corso Sempione Est,,2026-03-08T17:39:03.499462+00:00,daniel
45.48076956,9.16617316,Via Giulio Cesare Procaccini / Corso Sempione Est 2,,2026-03-08T17:39:20.028709+00:00,daniel
45.48069527,9.16552187,Corso Sempione / Via Francesco Ferrucci Est,,2026-03-08T17:40:05.981586+00:00,daniel
45.48072303,9.16527727,Corso Sempione / Via Francesco Ferrucci West,,2026-03-08T17:41:11.502386+00:00,daniel
45.48047385,9.16565278,Corso Sempione / Via Francesco Ferrucci South,,2026-03-08T17:41:45.184849+00:00,daniel
45.48042072,9.16587546,Corso Sempione / Via Francesco Ferrucci South 2,,2026-03-08T17:41:53.855639+00:00,daniel
45.47853041,9.16816231,Corso Sempione / Via Massena North,,2026-03-08T17:43:23.073214+00:00,daniel
45.47831177,9.16850636,Corso Sempione / Via Massena South,,2026-03-08T17:43:33.551551+00:00,daniel
45.47789823,9.16901172,Corso Sempione / Via Antonio Canova North,,2026-03-08T17:44:07.645912+00:00,daniel
45.47778822,9.16970446,Corso Sempione / Via Antonio Canova South,,2026-03-08T17:44:19.077070+00:00,daniel
45.47418605,9.170106,Via Mario Pagano / Via Antonio Canova Est,,2026-03-08T17:45:54.840076+00:00,daniel
45.4738376,9.16959357,Via Mario Pagano / Via Antonio Canova West,,2026-03-08T17:46:24.194022+00:00,daniel
45.4725459,9.16756919,Largo Quinto Alpini / Via Vincenzo Monti Est,,2026-03-08T17:47:43.310694+00:00,daniel
45.47223885,9.16747003,Largo Quinto Alpini / Via Vincenzo Monti South,,2026-03-08T17:48:05.240710+00:00,daniel
45.47207427,9.16770217,Largo Quinto Alpini / Via Vincenzo Monti South 2,,2026-03-08T17:48:13.472073+00:00,daniel
45.47251115,9.16707371,Largo Quinto Alpini / Via Vincenzo Monti North,,2026-03-08T17:48:23.286943+00:00,daniel
45.47214105,9.16700532,Largo Quinto Alpini / Via Vincenzo Monti West,,2026-03-08T17:48:45.403396+00:00,daniel
45.46982407,9.16595073,Via Ludovico Ariosto / Via Lorenzo Mascheroni,,2026-03-08T17:49:56.469533+00:00,daniel
45.46939242,9.16585163,Via Ludovico Ariosto / Via Lorenzo Mascheroni South,,2026-03-08T17:50:06.531451+00:00,daniel
45.46781367,9.16533962,Via Ludovico Ariosto / Via Alberto da Giussano North,,2026-03-08T17:50:36.694286+00:00,daniel
45.46735108,9.16523709,Via Ludovico Ariosto / Via Alberto da Giussano South,,2026-03-08T17:50:45.213743+00:00,daniel
45.48202536,9.16362108,Corso Sempione / Via Domodossola South,,2026-03-08T17:52:16.009431+00:00,daniel
45.48247343,9.16297058,Corso Sempione / Via Domodossola North,,2026-03-08T17:52:29.930260+00:00,daniel
45.48209491,9.16299749,Corso Sempione / Via Domodossola West,,2026-03-08T17:52:45.631107+00:00,daniel
45.48423829,9.16064382,Corso Sempione / Via Arona North,,2026-03-08T17:55:33.460204+00:00,daniel
45.48399522,9.16102009,Corso Sempione / Via Arona South,,2026-03-08T17:55:40.032212+00:00,daniel
45.48575494,9.15874337,Corso Sempione / Via Emanuele Filiberto South,,2026-03-08T17:56:28.779150+00:00,daniel
45.4861785,9.15846118,Corso Sempione / Via Emanuele Filiberto North,,2026-03-08T17:56:39.694894+00:00,daniel
45.48746706,9.15681783,Corso Sempione / Piazza Firenze South,,2026-03-08T17:58:04.461256+00:00,daniel
45.48770162,9.1564062,Corso Sempione / Piazza Firenze Center South,,2026-03-08T17:58:25.511767+00:00,daniel
45.48786922,9.15616173,Corso Sempione / Piazza Firenze Center North,,2026-03-08T17:58:44.454439+00:00,daniel
45.48795548,9.15647505,Piazza Firenze Center,,2026-03-08T17:59:38.652744+00:00,daniel
45.49105706,9.15360342,Via Lorenzo Bartolini / Viale Monte Ceneri South,,2026-03-08T18:01:41.361446+00:00,daniel
45.49142469,9.15308864,Via Lorenzo Bartolini / Viale Monte Ceneri North,,2026-03-08T18:01:53.402934+00:00,daniel
45.49567781,9.15508425,Via degli Artieri / Via Mac Mahon,,2026-03-08T18:02:47.416184+00:00,daniel
45.49615151,9.15505615,Via Mac Mahon / Via Campo dei Fiori,,2026-03-08T18:03:35.320802+00:00,daniel
45.4963254,9.1547342,Via Mac Mahon / Via Campo dei Fiori north,,2026-03-08T18:03:44.522304+00:00,daniel
45.49574865,9.15552891,Via Mac Mahon / Via Artieri,,2026-03-08T18:04:16.304388+00:00,daniel
45.49604057,9.1551137,Via Mac Mahon / Via Artieri North,,2026-03-08T18:04:54.981421+00:00,daniel
45.50224993,9.14327676,Via Console Marcello / Via Brivio,,2026-03-08T18:08:08.919957+00:00,daniel
45.50214871,9.14293047,Via Console Marcello / Via Brivio Est,,2026-03-08T18:08:29.780059+00:00,daniel
45.50132715,9.14142629,Via Monte Altissimo / Via Varesina,,2026-03-08T18:09:08.603864+00:00,daniel
45.50111098,9.14110188,Via Monte Altissimo / Via Varesina West,,2026-03-08T18:09:15.900761+00:00,daniel
45.50081045,9.14028593,Piazzale santone di Santarosa Est,,2026-03-08T18:09:39.256772+00:00,daniel
45.50097519,9.13958102,Piazzale santone di Santarosa North,,2026-03-08T18:09:45.397334+00:00,daniel
45.50232057,9.13868906,Viale Carlo Espinasse / Via Filippo Palizzi,,2026-03-08T18:10:59.238620+00:00,daniel
45.50274421,9.13871142,Viale Carlo Espinasse / Via Filippo Palizzi North,,2026-03-08T18:11:18.978695+00:00,daniel
45.50303935,9.13896023,Via Filippo Palizzi / Via Varesina South,,2026-03-08T18:11:48.854774+00:00,daniel
45.50337302,9.13914864,Via Filippo Palizzi / Via Varesina North,,2026-03-08T18:12:04.345749+00:00,daniel
45.50766463,9.1378247,Certosa / Via Mario Del Monaco Est,,2026-03-08T18:13:09.593654+00:00,daniel
45.50776938,9.13745612,Certosa / Via Mario Del Monaco North,,2026-03-08T18:13:17.680331+00:00,daniel
45.50748176,9.13736759,Certosa / Via Mario Del Monaco South,,2026-03-08T18:13:39.165333+00:00,daniel
45.50793949,9.13709344,Certosa / Via Giovanni Fattori Est,,2026-03-08T18:14:33.736326+00:00,daniel
45.50823885,9.13639321,Certosa / Via Giovanni Fattori West,,2026-03-08T18:14:40.528082+00:00,daniel
45.50890569,9.13250969,Via Antonio Mambretti 1,,2026-03-08T18:15:38.459176+00:00,daniel
45.50900246,9.13230966,Via Antonio Mambretti 2,,2026-03-08T18:15:43.749176+00:00,daniel
45.51147612,9.12833648,L.Go Boccioni South,,2026-03-08T18:16:57.792622+00:00,daniel
45.51168331,9.12801205,L.Go Boccioni North,,2026-03-08T18:17:09.190604+00:00,daniel
45.51389562,9.12554151,Via Grassi 1,,2026-03-08T18:17:46.686152+00:00,daniel
45.51397308,9.12539491,Via Grassi 2,,2026-03-08T18:17:51.308390+00:00,daniel
45.51734299,9.12025478,"Via Giovanni Battista Grassi, 74",,2026-03-08T18:18:35.585864+00:00,daniel
45.51743924,9.11977118,Roserio,,2026-03-08T18:18:54.453890+00:00,daniel
45.49341628,9.14488929,Accursio North,,2026-03-08T18:20:52.609805+00:00,daniel
