lat,lon,name,notes,added_at,added_by
45.46806583003343, 9.177668581548524, Piazzale Cadorna Est1,
45.468027268471516, 9.17744662875355, Piazzale Cadorna Est2,
45.467989448324865, 9.17695510250343, Piazzale Cadorna West1,
45.4680285393238, 9.17663836274877, Piazzale Cadorna West2,
45.46772489618326, 9.176828093050323, Piazzale Cadorna South1,
45.4677913328671, 9.173858201691766, Piazza Virgilio Est,
45.46759253032219, 9.179814453351748, Foro Buonaparte - Via Ricasoli Est,
45.4676028740004, 9.179284543564416, Foro Buonaparte - Via Ricasoli West,
45.46792286577095, 9.181731372883384, Largo Cairoli - Foro Buonaparte West,
45.46830942143114, 9.182523965630908, Largo Cairoli Est,
45.468181108317765, 9.182012001284045, Largo Cairoli West,
45.468623237258335, 9.183211532266409, Largo Cairoli - Via Cusani South,
45.46857856271902, 9.182982873957958, Largo Cairoli - Via Cusani North,
45.46891382,9.18296034,Largo Cairoli - Foro Buonaparte Est,,2026-03-04T12:54:45.437245+00:00,daniel
45.468888,9.18499348,Via Cusani / Via Ponte Vetero Est,,2026-03-04T13:17:14.294911+00:00,daniel
45.4691184,9.18529794,Via Ponte Vetero / Via Cusani North,,2026-03-04T13:17:44.619040+00:00,daniel
45.46876162,9.18541403,Via Broletto / Via Cusani,,2026-03-04T13:18:18.324126+00:00,daniel
45.46563142,9.18690876,Piazza Cordusio est,,2026-03-04T13:20:10.849948+00:00,daniel
45.4675674,9.19011688,Piazza della Scala north,,2026-03-04T13:21:00.551357+00:00,daniel
45.4672327,9.18981881,Piazza della scala south,,2026-03-04T13:21:12.271190+00:00,daniel
45.47016421,9.19286458,Via Alessandro Manzoni / Via Monte Napoleone north,,2026-03-04T13:22:17.721571+00:00,daniel
45.4699315,9.19268477,Via Alessandro Manzoni / Via Monte Napoleone south,,2026-03-04T13:22:25.593802+00:00,daniel
45.47261218,9.19517884,Piazza Cavour north,,2026-03-04T13:23:05.208069+00:00,daniel
45.47217455,9.19502233,Piazza Cavour south,,2026-03-04T13:23:20.377469+00:00,daniel
45.47558954,9.19464894,Piazza Stati Uniti d'America south,,2026-03-04T13:23:54.188271+00:00,daniel
45.47600435,9.19474344,Piazza Stati Uniti d'America north,,2026-03-04T13:24:02.485484+00:00,daniel
45.47813898,9.19733471,Piazza della Repubblica,,2026-03-04T13:25:15.677919+00:00,daniel
