lat,lon,name,notes,added_at,added_by
45.46806583003343,9.177668581548524,Piazzale Cadorna Est1,
45.468027268471516,9.17744662875355,Piazzale Cadorna Est2,
45.467989448324865,9.17695510250343,Piazzale Cadorna West1,
45.4680285393238,9.17663836274877,Piazzale Cadorna West2,
45.46772489618326,9.176828093050323,Piazzale Cadorna South1,
45.4677913328671,9.173858201691766,Piazza Virgilio Est,
45.46759253032219,9.179814453351748,Foro Buonaparte - Via Ricasoli Est,
45.4676028740004,9.179284543564416,Foro Buonaparte - Via Ricasoli West,
45.46792286577095,9.181731372883384,Largo Cairoli - Foro Buonaparte West,
45.46830942143114,9.182523965630908,Largo Cairoli Est,
45.468181108317765,9.182012001284045,Largo Cairoli West,
45.468623237258335,9.183211532266409,Largo Cairoli - Via Cusani South,
45.46857856271902,9.182982873957958,Largo Cairoli - Via Cusani North,
45.46891382,9.18296034,Largo Cairoli - Foro Buonaparte Est,,2026-03-04T12:54:45.437245+00:00,daniel
45.468888,9.18499348,Via Cusani / Via Ponte Vetero Est,,2026-03-04T13:17:14.294911+00:00,daniel
45.4691184,9.18529794,Via Ponte Vetero / Via Cusani North,,2026-03-04T13:17:44.619040+00:00,daniel
45.46876162,9.18541403,Via Broletto / Via Cusani,,2026-03-04T13:18:18.324126+00:00,daniel
45.46563142,9.18690876,Piazza Cordusio est,,2026-03-04T13:20:10.849948+00:00,daniel
45.4675674,9.19011688,Piazza della Scala north,,2026-03-04T13:21:00.551357+00:00,daniel
45.4672327,9.18981881,Piazza della scala south,,2026-03-04T13:21:12.271190+00:00,daniel
45.47016421,9.19286458,Via Alessandro Manzoni / Via Monte Napoleone north,,2026-03-04T13:22:17.721571+00:00,daniel
45.4699315,9.19268477,Via Alessandro Manzoni / Via Monte Napoleone south,,2026-03-04T13:22:25.593802+00:00,daniel
45.47261218,9.19517884,Piazza Cavour north,,2026-03-04T13:23:05.208069+00:00,daniel
45.47217455,9.19502233,Piazza Cavour south,,2026-03-04T13:23:20.377469+00:00,daniel
45.47558954,9.19464894,Piazza Stati Uniti d'America south,,2026-03-04T13:23:54.188271+00:00,daniel
45.47600435,9.19474344,Piazza Stati Uniti d'America north,,2026-03-04T13:24:02.485484+00:00,daniel
45.47813898,9.19733471,Piazza della Repubblica,,2026-03-04T13:25:15.677919+00:00,daniel
45.46640277,9.16490852,Piazzale Francesco Baracca / Corso Vercelli north,,2026-03-04T13:35:02.296704+00:00,daniel
45.46616476,9.16522262,Piazzale Francesco Baracca / Corso Vercelli est,,2026-03-04T13:35:27.819209+00:00,daniel
45.46619203,9.16445118,Piazzale Francesco Baracca / Corso Vercelli west,,2026-03-04T13:35:34.548472+00:00,daniel
45.46591836,9.16479462,Viale San Michele del Carso / Corso Vercelli south,,2026-03-04T13:36:06.905813+00:00,daniel
45.45959598,9.16564979,Viale Coni Zugna / Via Vincenzo Foppa north,,2026-03-04T13:38:12.144531+00:00,daniel
45.45940544,9.16600558,Viale Coni Zugna / Via Vincenzo Foppa south,,2026-03-04T13:38:19.065475+00:00,daniel
45.45766108,9.16859845,Viale Coni Zugna / Via Andrea Solari north,,2026-03-04T13:39:21.395013+00:00,daniel
45.45746902,9.16893859,Viale Coni Zugna / Via Andrea Solari south,,2026-03-04T13:39:29.805522+00:00,daniel
45.45728655,9.1691566,Viale Coni Zugna / Via Andrea Solari south 2,,2026-03-04T13:39:43.650194+00:00,daniel
45.45707726,9.16907396,Viale Coni Zugna / Via Andrea Solari west,,2026-03-04T13:40:06.600308+00:00,daniel
45.45692154,9.16976343,Viale Coni Zugna / Via Arcangelo Ghisleri,,2026-03-04T13:41:10.714375+00:00,daniel
45.45536466,9.17208084,Viale Coni Zugna / Corso Cristoforo Colombo north,,2026-03-04T13:41:54.304720+00:00,daniel
45.45530489,9.17269975,Viale Coni Zugna / Corso Cristoforo Colombo est,,2026-03-04T13:42:08.030799+00:00,daniel
45.45504105,9.17266548,Viale Coni Zugna / Corso Cristoforo Colombo south,,2026-03-04T13:42:16.648055+00:00,daniel
45.45495542,9.17223225,Viale Coni Zugna / Corso Cristoforo Colombo west,,2026-03-04T13:43:01.527407+00:00,daniel
45.44250698,9.1234571,Via Francesco Gonin / Via Pietro Giordani west,,2026-03-04T13:45:15.021466+00:00,daniel
45.44271832,9.12403591,Via Francesco Gonin / Via Pietro Giordani est,,2026-03-04T13:45:25.479313+00:00,daniel
45.44413352,9.12849084,Via Francesco Gonin / Piazzale Tirana west,,2026-03-04T13:46:07.537686+00:00,daniel
45.44467351,9.13007135,Via Giambellino / Piazzale Tirana est,,2026-03-04T13:46:32.543053+00:00,daniel
45.4445089,9.12964947,Piazzale Tirana,,2026-03-04T13:47:14.938217+00:00,daniel
45.44427368,9.12882317,Piazzale Tirana west,,2026-03-04T13:47:51.901997+00:00,daniel
45.44685126,9.13690079,Via Giambellino / Largo Giambellino west,,2026-03-04T13:50:50.429803+00:00,daniel
45.44698344,9.13722334,Via Giambellino / Largo Giambellino west 2,,2026-03-04T13:50:58.550256+00:00,daniel
45.44705588,9.13753249,Via Giambellino / Largo Giambellino est 2,,2026-03-04T13:51:09.494256+00:00,daniel
45.44719606,9.1378738,Via Giambellino / Largo Giambellino est,,2026-03-04T13:51:16.913894+00:00,daniel
45.44768061,9.13946679,Largo Giambellino / Largo Gelsomini est,,2026-03-04T13:52:48.609403+00:00,daniel
45.44790274,9.1400672,Largo Giambellino / Largo Gelsomini est 2,,2026-03-04T13:53:01.175004+00:00,daniel
45.47989971,9.20401096,Piazza Cincinnato north,,2026-03-06T00:04:11.208801+00:00,daniel
45.47878845,9.20293339,Via Lazzaretto Viale Tunisia north,,2026-03-06T00:05:23.196614+00:00,daniel
45.47832962,9.20255788,Via Lazzaretto Viale Tunisia south,,2026-03-06T00:05:43.445893+00:00,daniel
45.4783716,9.20319155,Viale Tunisia Via Lazzaretto est,,2026-03-06T00:06:01.916723+00:00,daniel
45.47665721,9.2068588,Viale Tunisia / Corso Buenos Aires West,,2026-03-06T00:06:51.231491+00:00,daniel
45.47644428,9.20739859,Viale Tunisia / Corso Buenos Aires Est,,2026-03-06T00:07:02.415900+00:00,daniel
45.47607695,9.20811944,Viale regina Giovanna 2,,2026-03-06T00:09:19.910442+00:00,daniel
45.47596611,9.20843326,Viale Regina Giovanna 3,,2026-03-06T00:09:46.082079+00:00,daniel
45.47479245,9.21090357,P.Za Otto Novembre Est,,2026-03-06T00:11:00.358926+00:00,daniel
45.4746152,9.21137094,P.Za Otto Novembre West,,2026-03-06T00:11:07.585889+00:00,daniel
45.47312556,9.21454936,Piazza Maria Adelaide di Savoia Est,,2026-03-06T00:12:09.910751+00:00,daniel
45.4728702,9.21455942,Piazza Maria Adelaide di Savoia South,,2026-03-06T00:12:27.432067+00:00,daniel
45.47301519,9.21536341,Piazza Maria Adelaide di Savoia North,,2026-03-06T00:12:45.559641+00:00,daniel
45.47300384,9.21491213,Piazza Maria Adelaide di Savoia Center West,,2026-03-06T00:12:55.608170+00:00,daniel
45.47292951,9.21508044,Piazza Maria Adelaide di Savoia Center Est,,2026-03-06T00:13:06.621092+00:00,daniel
45.47295397,9.21499327,Piazza Maria Adelaide di Savoia Center,,2026-03-06T00:13:19.816600+00:00,daniel
45.47328126,9.21668977,Via Degli Scipioni,,2026-03-06T00:14:13.623650+00:00,daniel
45.47321776,9.21748102,Piazza Ascoli Center south,,2026-03-06T00:14:56.918781+00:00,daniel
45.47363672,9.2176567,Piazza Ascoli Center north,,2026-03-06T00:15:51.743347+00:00,daniel
45.47379673,9.21794504,Piazza Ascoli North,,2026-03-06T00:16:13.504351+00:00,daniel
45.47359236,9.21746626,Piazza Ascoli Center north 2,,2026-03-06T00:16:55.471070+00:00,daniel
45.47107952,9.22341809,Piazza Ferravilla,,2026-03-06T00:20:35.028995+00:00,daniel
45.47093474,9.22419928,Via Beato Angelico,,2026-03-06T00:21:06.339100+00:00,daniel
45.47093342,9.22395989,Via Beato Angelico 1,,2026-03-06T00:21:22.695404+00:00,daniel
45.4709234,9.22987282,Via Beato Angelico / Via Giovanni Antonio Amadeo West,,2026-03-06T00:22:51.046100+00:00,daniel
45.4709658,9.23043475,Via Beato Angelico / Via Giovanni Antonio Amadeo Est,,2026-03-06T00:22:56.294350+00:00,daniel
45.47096485,9.23485905,Via Giovanni Antonio Amadeo / Via Temistocle Calzecchi Est,,2026-03-06T00:24:14.977913+00:00,daniel
45.47099209,9.23533112,Via Giovanni Antonio Amadeo / Via Temistocle Calzecchi Est,,2026-03-06T00:24:20.912832+00:00,daniel
45.4724593,9.2114266,Via Nino Bixio / Via Pisacane Est,,2026-03-06T00:28:58.171918+00:00,daniel
45.47238171,9.21089619,Via Nino Bixio / Via Pisacane West,,2026-03-06T00:29:05.205071+00:00,daniel
45.47200652,9.20693591,Via Nino Bixio / Via Piave Est,,2026-03-06T00:29:37.224560+00:00,daniel
45.47212877,9.20660533,Via Nino Bixio / Via Piave North,,2026-03-06T00:30:05.553299+00:00,daniel
45.47175759,9.20666501,Via Nino Bixio / Via Piave South,,2026-03-06T00:30:28.089742+00:00,daniel
45.47086794,9.20672268,Via Piave / Via Bernardi North,,2026-03-06T00:31:19.867467+00:00,daniel
45.47058207,9.20680784,Via Piave / Via Bernardi South,,2026-03-06T00:31:47.656575+00:00,daniel
45.46827675,9.20694999,Piazza Tricolore North,,2026-03-06T00:34:43.082563+00:00,daniel
45.46753464,9.20709819,Piazza Tricolore South,,2026-03-06T00:35:24.262108+00:00,daniel
45.46272867,9.20754544,Piazza Cinque Giornate North,,2026-03-06T00:37:19.920869+00:00,daniel
45.46197857,9.2076581,Piazza Cinque Giornate South,,2026-03-06T00:37:30.929491+00:00,daniel
45.46226967,9.20805775,Piazza Cinque Giornate Est,,2026-03-06T00:37:38.207251+00:00,daniel
45.46209829,9.20731746,Piazza Cinque Giornate Center Est,,2026-03-06T00:38:10.019821+00:00,daniel
45.46245025,9.20698218,Piazza Cinque Giornate Center West,,2026-03-06T00:38:17.298286+00:00,daniel
45.46226195,9.20640081,Piazza Cinque Giornate West,,2026-03-06T00:38:43.347449+00:00,daniel
45.46189218,9.20674011,Piazza Cinque Giornate Very South,,2026-03-06T00:39:27.971040+00:00,daniel
45.46183067,9.20737579,Piazza Cinque Giornate Very South 2,,2026-03-06T00:39:51.801428+00:00,daniel
45.46231555,9.2033726,C.So P.Ta Vittoria (Camera Del Lavoro),,2026-03-06T00:41:08.595777+00:00,daniel
45.46229288,9.20280933,28 C.so di Porta Vittoria,,2026-03-06T00:41:29.044701+00:00,daniel
45.46232299,9.20247674,27 C.so di Porta Vittoria,,2026-03-06T00:41:43.482659+00:00,daniel
45.46230888,9.20192957,22 C.so di Porta Vittoria,,2026-03-06T00:42:00.597497+00:00,daniel
45.46235217,9.20114905,C.so di Porta Vittoria Tribunale,,2026-03-06T00:42:19.171759+00:00,daniel
45.46233053,9.20069844,C.so di Porta Vittoria Tribunale West,,2026-03-06T00:42:27.813949+00:00,daniel
45.46240487,9.19828042,Corso Porta Vittoria / Via Francesco Sforza Est,,2026-03-06T00:43:13.254432+00:00,daniel
45.46256766,9.19788614,Corso Porta Vittoria / Via Francesco Sforza West,,2026-03-06T00:43:19.072722+00:00,daniel
45.46286784,9.19743016,L.Go Augusto Est,,2026-03-06T00:44:02.555989+00:00,daniel
45.46303229,9.19677436,L.Go Augusto West,,2026-03-06T00:44:07.125648+00:00,daniel
45.46303229,9.19583693,Via Verziere Est,,2026-03-06T00:44:21.668490+00:00,daniel
45.46295796,9.19513151,Corso Europa North,,2026-03-06T00:44:48.647928+00:00,daniel
45.46292508,9.19517711,Corso Europa South,,2026-03-06T00:44:55.646113+00:00,daniel
45.46279898,9.19457763,Corso Europa West,,2026-03-06T00:45:16.854802+00:00,daniel
45.46259668,9.19410959,Via Larga / Piazza Santo Stefano,,2026-03-06T00:45:34.552167+00:00,daniel
45.462354,9.19366166,VIa Larga / Via Bergamini,,2026-03-06T00:45:47.236734+00:00,daniel
45.46261009,9.19370592,Via San Clemente / Via Larga Est,,2026-03-06T00:46:10.270551+00:00,daniel
45.46257982,9.19366971,Via San Clemente / Via Larga West,,2026-03-06T00:46:16.565199+00:00,daniel
45.46118426,9.19171035,Via Larga / Via Flavio Baracchini Est,,2026-03-06T00:46:44.657506+00:00,daniel
45.46092046,9.19138312,Via Larga / Via Flavio Baracchini West,,2026-03-06T00:46:56.573432+00:00,daniel
45.46086964,9.19123426,Via Larga / Via Panano Est,,2026-03-06T00:47:13.742153+00:00,daniel
45.46081619,9.1912128,Via Larga / Via Panano West,,2026-03-06T00:47:18.413272+00:00,daniel
45.46073714,9.19075012,Via Larga / Via Panano West West,,2026-03-06T00:47:22.995029+00:00,daniel
45.46117457,9.18906167,Via Albricci / Piazza Missori Est,,2026-03-06T00:48:06.753353+00:00,daniel
45.46150019,9.18848097,Piazza Missori North,,2026-03-06T00:48:19.534666+00:00,daniel
45.46093703,9.18843135,Piazza Missori South 2,,2026-03-06T00:48:29.951876+00:00,daniel
45.46120247,9.18857552,Piazza Missori South,,2026-03-06T00:48:45.775681+00:00,daniel
45.46062032,9.18830395,Piazza Missori South 3,,2026-03-06T00:49:18.130317+00:00,daniel
45.46039094,9.18828383,Piazza Missori South 4,,2026-03-06T00:49:24.651535+00:00,daniel
45.46043579,9.18854333,Piazza Missori South Est,,2026-03-06T00:49:35.533888+00:00,daniel
45.46050406,9.18840554,Piazza Missori South Est 2,,2026-03-06T00:49:44.820837+00:00,daniel
45.45755923,9.18755963,Corso Italia / Piazza Sant'Eufemia North,,2026-03-06T00:50:17.013745+00:00,daniel
45.45721037,9.18755695,Corso Italia / Piazza Sant'Eufemia South,,2026-03-06T00:50:23.769365+00:00,daniel
45.45622125,9.18743223,Corso Italia / Via Santa Sofia North,,2026-03-06T00:50:50.905877+00:00,daniel
45.45586332,9.18739066,Corso Italia / Via Santa Sofia South,,2026-03-06T00:50:55.938820+00:00,daniel
45.45348186,9.18693602,Corso Italia / Via Marco Burigozzo North,,2026-03-06T00:51:27.672946+00:00,daniel
45.45321042,9.18694407,Corso Italia / Via Marco Burigozzo South,,2026-03-06T00:51:31.809040+00:00,daniel
45.45262247,9.18679655,Corso Italia / Viale Gian Galeazzo North,,2026-03-06T00:51:49.225455+00:00,daniel
45.45215458,9.18672748,Viale Gian Galeazzo North,,2026-03-06T00:52:20.680624+00:00,daniel
45.45205721,9.18660611,Piazzale Porta Ludovica Center,,2026-03-06T00:52:33.836357+00:00,daniel
45.45174903,9.18708891,Porta Ludovica Est,,2026-03-06T00:52:44.087867+00:00,daniel
45.45186157,9.18618836,Porta L,,2026-03-06T00:52:51.214825+00:00,daniel
45.4515561,9.18656319,Porta Ludovica South,,2026-03-06T00:53:08.811237+00:00,daniel
45.44977923,9.18596976,Via Pietro Teuliè North,,2026-03-06T00:53:47.602121+00:00,daniel
45.4494736,9.18584168,Via Gian Carlo Castelbarco,,2026-03-06T00:54:07.868990+00:00,daniel
45.44906595,9.18565795,Via Gian Carlo Castelbarco South 1,,2026-03-06T00:54:27.585131+00:00,daniel
45.44889782,9.1856432,Via Gian Carlo Castelbarco South 2,,2026-03-06T00:54:32.596339+00:00,daniel
45.425233348604294,9.203486364223796,Via Ripamonti/via Chopin (sud)
45.425671289646,9.203326306656436,Via Ripamonti/via Chopin (north)
45.42699786753833,9.202990015150135,Via ripamonti/via Muzio Attenedolo (south)
45.42715034344489,9.20290485501563,Via Ripamonti/via Muzio Attenedolo (north)
45.429111735018445,9.202428500183435,Via Ripamonti/via Val di Sole (south)
45.42955933658122,9.202267375498298,Via Ripamonti/via Val di Sole (north)
45.43138907607858,9.201727796965354,Via Ripamonti/via Noto (south)
45.4318719777184,9.20154596451712,Via Ripamonti/via Noto (north)
45.43297626671417,9.20123149047587,Via Ripamonti/via Sibari (south)
45.43339176563796,9.20111481438085,via Ripamonti/via Sibari (north)
45.43583691269326,9.20067964340132,via Ripamonti/via Quaranta (south)
45.43637478863954,9.20053960462494,via Ripamonti/via Quaranta (north)
45.438608849884986,9.200153549003817,via Ripamonti/viale Ortles (south)
45.439159838632044,9.199991969836065,via Ripamonti/viale ortles (north)
45.44318722399301,9.198980646015253,Via Ripamonti/via Lorenzini (south)
45.443572412884095,9.198824881518723,via Ripamonti/via Lorenzini (north)
45.446204853987304,9.198146513074134,via Ripamonti/ viale Isonzo (south)
45.446812416308305,9.19793078389724,via Ripamonti/viale Isonzo (north)
45.44835451669343,9.197549880205115,via Ripamonti/via Bellezza (south)
45.44896209345064,9.19733850947644,via Ripamonti/via Bellezza (north)
45.45071975473157,9.196912596130074,via Ripamonti/viale Sabotino (south)
45.451284786887435,9.196730256005315,via Ripamonti/viale Sabotino (north)
45.451735884368965,9.196636560318852,via Ripamonti/viale Beatrice d'Este (south)
45.452237829959984,9.19647931775902,corso di Porta Vigentina/viale Beatrice d'Este (north)
45.45602789577072,9.195539202475413,largo Crocetta/corso di Porta Romana (south)
45.456416414434564,9.195234101198182,largo Crocetta/corso di Porta Romana (north)
45.45747718704605,9.193609451749053,corso di Porta Romana/via santa Sofia (south)
45.45774716793867,9.193134030204947,corso di Porta Romana/via Santa Sofia (north)
45.458264081345334,9.192355765553188,corso di Porta Romana/piazza San Nazario in Brolo (south)
45.45836903231465,9.192154110248484,corso di Porta Romana/piazza San Nazario in Brolo (north)
45.45969145570091,9.18995521030102,corso di Porta Romana/piazza Velasca (south)
45.45990028300627,9.189511304703396,corso di Porta Romana/piazza Velasca (north)
45.4622368361485,9.21109835807309,corso 22 marzo/piazza s.Maria del Suffragio (west)
45.46226129673736,9.211708336524834,corso 22 marzo/piazza s.Maria del Suffragio (east)
45.46221363302343,9.213248267794297,corso 22 marzo/via Mameli (west)
45.46224371334907,9.213757269701956,corso 22 marzo/via Mameli (east)
45.4622184171805,9.214396834255966,corso 22 marzo/via Cadore (west)
45.46224024549264,9.215088863017286,corso 22 marzo/via Cadore (east)
45.46220913941252,9.216913084950509,corso 22 marzo/ viale Umbria (west)
45.46221948626749,9.217857508846413,corso 22 marzo/viale Umbria (east)
45.4621580997219,9.22342952298118,corso 22 marzo/viale Campania (west)
45.46215377181723,9.223707911048603,corso 22 marzo/viale Campania (centre-west1)
45.46217916866455,9.22382458714432,corso 22 marzo/viale Campania (centre west2)
45.462150949944586,9.22400563625836,corso 22 marzo/viale Campania (centre-east1)
45.46217728741699,9.224103536890398,corso 22 marzo/viale Campania (centre-east2)
45.46217634679318,9.22441467314564,viale Corsica/viale campania (east)
45.462177682360426,9.22756446188486,viale Corsica/via Grasselli (west)
45.46225442746963,9.227900436246742,viale Corsica/via Grasselli (centre)
45.462285023006785,9.22817070292108,viale Corsica/via Grasselli (east)
45.46224046138024,9.229892447411656,viale Corsica/via Lomellina (west)
45.46226942912585,9.230572313083776,viale Corsica/via Lomellina (east)
45.46221918649769,9.232246806000914,viale Corsica/via Negroli (west)
45.46212774961808,9.232912733988147,viale Corsica/via Negroli (east)
45.46206468724657,9.234963941134636,viale Corsica/largo Rodari (west)
45.46205622161485,9.235430645517498,viale Corsica/largo Rodari (east)
45.46199155098398,9.237737347530206,viale Corsica/via Repetti (west)
45.46161529896318,9.238158454354076,viale Corsica/via repetti (south)
45.459363066006276,9.239261490857992,via Marco Bruto (northwest)
45.45911644575295,9.239645395460037,via Marco Bruto (southeast)
45.45840490591263,9.240562733866545,via Marco Bruto/piazza Ovidio (north1)
45.45816635639861,9.240947037560105,via Marco Bruto/piazza ovidio (north2)
45.45766721403337,9.24157056936926,via Marco Bruto/piazza ovidio (centre)
45.45735141178708,9.241999993495096,via Marcio Bruto/piazza ovidio (south1)
45.45711832768188,9.242368937423578,via Marco Bruto/piazza Ovidio (south2)
45.45578242984854,9.244131447749233,via mecenate/via Maderna (north)
45.45548170028004,9.244592264162454,via Mecenate/via Maderna (south)
45.45106538068623,9.250550937551228,via Mecenate/via Fantoli (north)
45.45077714743043,9.251005534288737,via Mecenate/via Fantoli (south)
45.447656958794994,9.255196357256873,via Mecenate/viale Ungheria (north)
45.447128243682926,9.255283489619327,via Mecenate/viale Ungheria (southwest)
45.4460576803422,9.251145650911392,viale Ungheria/largo guerrieri di Gonzaga (east)
45.44601257866682,9.25078489378773,viale Ungheria/largo guerrieri di Gonzaga (west)
45.463538268079866,9.188075728504673,Torino/orefici (south)
45.46400767585384,9.187876324550405,Torino/orefici (north)
45.46274128990272,9.187037967235025,Torino/asole (north)
45.46244999550004,9.186729538435717,Torino/asole (south)
45.46226064023128,9.186444975343004,torino/lupetta (north)
45.46202501380479,9.186198882643314,torino/lupetta (south)
45.46047121818191,9.181664996469895,torino/porta ticinese (north)
45.46017492936469,9.181295406627834,carrobbio (centre)
45.45998112908593,9.181228798155727,torino/porta ticinese (south)
45.45878457181019,9.181060558783514,colonne di san lorenzo (north)
45.45753951256576,9.180965467288873,porta ticinese/molino delle armi (north)
45.457184897954996,9.180933491433589,porta ticinese/molino delle armi (south)
45.45327145971936,9.180308602342134,porta ticinese/d'annunzio (north)
45.45282946493174,9.180305226739456,porta ticinese/d'annunzio (south)
45.45252077175474,9.180041386999909,arco di porta ticinese (west)
45.45185137695386,9.18013238842959,corso san gottardo/piazza 24 maggio (south)
45.44760329448853,9.179546387599348,corso san gottardo/pavia (north)
45.447124630064806,9.179553820732902,corso san gottardo/pavia (south)
45.44664517846849,9.179451631130068,corso san gottardo/largo mahler (north)
45.44646303354754,9.17946588495113,corso san gottardo/largo mahler (south)
45.44646303354754,9.17942108723091,corso san gottardo/tabacchi (north)
45.44613588550803,9.179406833411278,meda/ san gottardo/tabacchi (south)
45.443817580415526,9.179051097458155,meda/tibaldi (north)
45.44328082692607,9.179011675656037,meda/tibaldi (south)
45.43817301577957,9.178352821814736,meda/giovanni da cermenate (north)
45.43778293402953,9.178345328943257,meda/giovanni da cermenate (centre north)
45.43771141565069,9.178283638134026,meda/giovanni da cermenate (centre south)
45.43721029956579,9.178235265602863,montegani/giovanni da cermenate (south)
45.435148871280205,9.17797834086594,montegani/palmieri (north)
45.43478139368756,9.177968155794876,montegani/palmieri (south)
45.43324685693721,9.177741784996039,montegani/neera (north)
45.43285122726114,9.177728441281724,montegani/neera (south)
45.430841987620795,9.177535514013453,montegani/abbiategrasso (north)
45.43034953838855,9.17759100472169,montegani/abbiategrasso (south)
45.43022732870077,9.177566142205675,abbiategrasso (centre)
45.43012637808444,9.177615170604035,abiategrasso (centre2)
45.430080559599595,9.17758591748967,abbiategrasso (centre3)
45.42980149191579,9.177602650702097,abbiategrasso/missaglia
45.427141867146474,9.177258944936169,missaglia/boifava (north)
45.42667826732163,9.177235138908753,missaglia/boifava (south)
45.42315961144937,9.17691928273014,missaglia/ de' andrè (north)
45.42286077457929,9.176925696247526,missaglia/ de' andrè (south)
45.41865782764682,9.175453859155661,missaglia/ de ruggiero (north)
45.418351643864945,9.175429371261448,missaglia/ de ruggiero (south)
45.414517719816544,9.174845647265006,missaglia/feraboli (north)
45.41421452067372,9.17482172298563,missaglia/feraboli (south)
45.41062659602903,9.174389859059637,missaglia/saponaro (north)
45.410239632567475,9.174431336710404,missagli/saponaro (north)
45.403618028953254,9.174502666081162,missaglia/cappio del 3
45.440936812299014,9.11749693155104,molinetto di lorenteggio/cappio del 14 (west)
45.440826704223035,9.118180436377894,molinetto di lorenteggio/cappio del 14 (east)
45.443368359524065,9.126128532123808,gonin (altezza civico 16-west)
45.44347514370096,9.126366577139038,gonin (altezza civico 16-east)
45.44901460787383,9.143592858477799,giambellino/brunelleschi (lato ovest-west)
45.449163121018216,9.143967415519237,giambellino/brunelleschi (lato ovest-east)
45.449159609614895,9.144034987778136,giambellino/brunelleschi (lato est-west)
45.449326360768026,9.144466569281954,giambellino/brunelleschi (lato est-east)
45.45129905109782,9.150657393403563,giambellino/tolstoj (west)
45.451473996196434,9.151116639565174,giambellino/tolstoj (east)
45.45234333059652,9.153875301073501,piazza napoli (west)
45.45259104981335,9.15459435740751,piazza napoli (east)
45.45390883427677,9.158740203486035,solari/stendhal (west)
45.454061425893535,9.159125681110933,solari/stendhal (east)
45.45566780716457,9.17327942874091,colombo/cantore (south)
45.4560157213037,9.17373308253304,colombo/cantore (north)
45.458629282075506,9.177619938043426,resistenza partigiana (south)
45.45890304719366,9.177963551656124,resistenza partigiana (north)
45.46008185016071,9.180886899857002,correnti/carrobbio (south)
45.46020956499356,9.181159624086073,correnti/carrobbio (north)
45.46355425792345,9.188098795582386,torino/orefici (south)
45.46369471976426,9.188169720921529,torino/orefici (north)
45.46392120985595,9.188159563831833,orefici (south)
45.464014535869374,9.187963134347225,orefici (north)
45.465080854975334,9.186486574294491,orefici/cordusio (south)
45.46535031658378,9.186316187289808,cordusio/orefici (north)
45.4654504789054,9.186424437442184,cordusio/mercanti (south)
45.46581317778842,9.186374429227353,broletto/cordusio (north)
45.471879682756956,9.18398564990828,mercato/tivoli (east)
45.47197872463664,9.183592010272516,mercato/tivoli (west)
45.47180755212208,9.182735898086829,tivoli/buonaparte (east)
45.471993483667234,9.182144337646895,lanza M2 (west)
45.4737116421963,9.181801695835297,legnano/gadio (south)
45.47397058724902,9.181717834765026,legnano/gadio (north)
45.47518861524968,9.181554642352582,legnano (fermata arena-south)
45.47529733981086,9.181493493171278,legnano (fermata arena-north)
45.47728413356412,9.181162987180484,legnano/elvezia
45.477982606907204,9.180465689588988,bramante/biancamano
45.48149094067088,9.179099372818195,bramante/sarpi (south)
45.48179207292718,9.178915773128253,bramante/sarpi (north)
45.483879995738626,9.177626420224824,bramante/cim. monumentale (south)
45.48458273063341,9.17685714584962,nono/cim. monumentale (north)
45.48746845848943,9.173072920890409,cenisio/messina (lato est-east)
45.48745398767546,9.172594555788931,cenisio/messina (lato est-west)
45.48749106357286,9.172238595465556,cenisio/messina (lato ovest-east)
45.48748588067289,9.1718116867568,cenisio/messina (lato ovest-west)
45.4875895729876,9.16901202629908,cenisio/fratelli induno (east)
45.487584040147354,9.168364742392125,cenisio/fratelli induno (west)
45.48766384168128,9.165876492133268,diocleziano (east)
45.487670756301036,9.16539048092179,diocleziano (west)
45.487896731593544,9.157094150315167,firenze (east)
45.48809183439524,9.15566176522049,firenze (west)
45.48989265865744,9.151766111248488,certosa/monte ceneri (east)
45.49015785942963,9.151219865729482,certosa/monte ceneri (west)
45.49162454021997,9.147986153529718,certosa/grosotto (east)
45.491792565309424,9.147517775616599,certosa/grosotto (west)
45.49251034573034,9.146011633536215,certosa/papa (east)
45.492683401040075,9.145537865087203,certosa/papa (west)
45.492862093710436,9.145214058809641,accursio (east)
45.49309859814019,9.144670341536228,certosa/accursio (west)
45.49534433202293,9.139761074676844,certosa/aniene (east)
45.49548252179814,9.13936394955043,certosa/aniene (west)
45.49811414624572,9.133631614538398,certosa/tibullo (east)
45.49828700118314,9.133167021397718,certosa/tibullo (west)
45.49935465411646,9.130950250456301,certosa/ghisallo (east)
45.49973282799447,9.130032339565847,certosa/ghisallo (west)
45.50122957640396,9.126770000387376,certosa/cormons (east)
45.501368509510215,9.126401046337492,certosa/cormons (west)
45.44807891981047,9.185351299374826,giambologna/tabacchi (north)
45.44775153150737,9.185291214326469,giambologna/tabacchi (south)
45.44503650418951,9.184408007236325,bibbiena/tibaldi (north)
45.444645869410984,9.184124864604062,bibbiena/tibaldi (south)
45.44434486405445,9.18295237804844,tibaldi/pezzotti (north)
45.443995630836255,9.182764913097158,tibaldi/pezzotti (south)
45.441101743193805,9.183141200782062,pezzotti/bonghi (north)
45.440820800849224,9.183203351520708,pezzotti/bonghi (south)
45.439450054570635,9.183272429508614,pezzotti/carcano (north)
45.43913772348849,9.183335678332904,pezzotti/carcano (south)
45.43802911320687,9.18339331123891,pezzotti/cermenate (north)
45.43776631163813,9.183446234961195,pezzotti/cermenate (south)
45.437552683541014,9.183428202653603,volvinio/cermenate (north)
45.437165466550226,9.183494946732916,volvinio/cermenate (south)
45.43504582507661,9.183632132309551,volvinio/palmieri (north)
45.43471851543842,9.18367684167496,volvinio/palmieri (south)
45.43380776942004,9.183714417071732,volvinio/agrippa (north)
45.43357888052462,9.183682915781652,volvinio/agrippa (south)
45.43309664848096,9.183370213605526,medeghino/agrippa (north)
45.432851779206246,9.183162982532638,medeghino/agrippa (south)
45.43052549162067,9.178550080947634,medeghino/abbiategrasso (north)
45.43034470617138,9.178279695513877,medeghino/abbiategrasso (south)
45.403067129187,9.174249011906577,missaglia/manduria (north)
45.40264497442906,9.174183890187104,missaglia/manduria (south)
45.398231665267424,9.173411935851949,curiel/maggi (north)
45.398089570129954,9.173439800394922,curiel/maggi (south)
45.394298373271525,9.172952474436935,curiel/lambro (north)
45.39414789769568,9.172976009713658,curiel/lambro (south)
45.3895717065401,9.172181462260792,curiel/isonzo (north)
45.3891104064188,9.172037592980965,curiel/isonzo (south)
45.47790297,9.19666444,Piazza della Repubblica South,,2026-03-08T17:06:35.039950+00:00,daniel
45.47820999,9.19738017,Piazza della Repubblica Est,,2026-03-08T17:06:53.909019+00:00,daniel
45.47857721,9.19648884,Piazza della Repubblica West,,2026-03-08T17:08:03.127658+00:00,daniel
45.47852124,9.19642651,Piazza della Repubblica West 2,,2026-03-08T17:08:13.772657+00:00,daniel
45.47797654,9.19648713,Piazza della Repubblica South 2,,2026-03-08T17:09:10.624562+00:00,daniel
45.47783078,9.19823139,Piazza della Repubblica / Viale Vittorio Veneto,,2026-03-08T17:11:15.482128+00:00,daniel
45.47788252,9.19785296,Piazza della Repubblica / Viale Vittorio Veneto West,,2026-03-08T17:11:34.904263+00:00,daniel
45.47969198,9.19423038,Viale Monte Santo,,2026-03-08T17:13:19.610301+00:00,daniel
45.47968256,9.19481731,Viale Monte Santo / Via Galileo Galilei,,2026-03-08T17:13:57.138371+00:00,daniel
45.4793699,9.19490833,Viale Monte Santo Est,,2026-03-08T17:14:29.199377+00:00,daniel
45.48015273,9.19328765,Viale Monte Santo / Piazzale Principessa Clotilde,,2026-03-08T17:15:25.305969+00:00,daniel
45.48024253,9.19281816,Piazzale Principessa Clotilde,,2026-03-08T17:15:37.604583+00:00,daniel
45.48063465,9.19075553,Viale Monte Grappa / Via Melchiorre Gioia,,2026-03-08T17:16:22.782973+00:00,daniel
45.48072162,9.19006152,Viale Monte Grappa / Via Melchiorre Gioia West,,2026-03-08T17:16:34.122322+00:00,daniel
45.48335685,9.18816453,Via Fratelli Castiglioni / Via Luigi Sturzo,,2026-03-08T17:18:08.033766+00:00,daniel
45.48346725,9.18753157,Viale Luigi Sturzo / P.za Sigmund Freud,,2026-03-08T17:18:48.764609+00:00,daniel
45.4835077,9.18708367,Viale Luigi Sturzo 22,,2026-03-08T17:19:27.361676+00:00,daniel
45.48354578,9.18686104,Viale Luigi Sturzo 41,,2026-03-08T17:19:44.333695+00:00,daniel
45.48572998,9.18246225,Via Farini - Via Ferrari North,,2026-03-08T17:21:35.325631+00:00,daniel
45.48568061,9.18245893,Via Farini - Via Ferrari South,,2026-03-08T17:21:45.757287+00:00,daniel
45.48569801,9.18180634,Via Farini - Cimitero Monumentale,,2026-03-08T17:22:09.129176+00:00,daniel
45.48545165,9.18202644,Via Farini - Via Ferrari South 2,,2026-03-08T17:22:25.399964+00:00,daniel
45.48601773,9.18209753,Via Farini North,,2026-03-08T17:22:49.942857+00:00,daniel
45.48454191,9.18040489,Piazzale Cimitero Monumentale Est,,2026-03-08T17:23:27.361549+00:00,daniel
45.48428198,9.17966991,Piazzale Cimitero Monumentale Center,,2026-03-08T17:24:37.870987+00:00,daniel
45.48423639,9.17938299,Piazzale Cimitero Monumentale West,,2026-03-08T17:24:53.511191+00:00,daniel
45.48428931,9.178103,P.zale Cimitero Monumentale Est,,2026-03-08T17:26:55.072159+00:00,daniel
45.48441647,9.17726737,P.zale Cimitero Monumentale Center 1,,2026-03-08T17:27:20.573661+00:00,daniel
45.4843624,9.1774318,P.zale Cimitero Monumentale Center 2,,2026-03-08T17:27:26.720511+00:00,daniel
45.48401918,9.1766075,P.zale Cimitero Monumentale / Via Procaccini / Via Nono,,2026-03-08T17:28:27.735269+00:00,daniel
45.48415696,9.17700872,P.zale Cimitero Monumentale Center / Via Nono,,2026-03-08T17:29:36.750967+00:00,daniel
45.48391289,9.17533934,Via Giulio Cesare Procaccini / Via Messina,,2026-03-08T17:30:21.915589+00:00,daniel
45.48381894,9.17449428,Via Giulio Cesare Procaccini 9,,2026-03-08T17:31:09.583250+00:00,daniel
45.48420023,9.17483346,Via Giulio Cesare Procaccini / Via Messina (dep),,2026-03-08T17:31:51.297211+00:00,daniel
45.48368541,9.17082683,Via Giulio Cesare Procaccini / Via Paolo Lomazzo Est,,2026-03-08T17:32:47.903812+00:00,daniel
45.48358056,9.17054518,Via Giulio Cesare Procaccini / Via Paolo Lomazzo West,,2026-03-08T17:33:10.279378+00:00,daniel
45.48201738,9.1681078,Via Giulio Cesare Procaccini / Via Piero della Francesca Est,,2026-03-08T17:34:15.032325+00:00,daniel
45.48171788,9.16768318,Via Giulio Cesare Procaccini / Via Piero della Francesca West,,2026-03-08T17:34:26.306318+00:00,daniel
45.48163366,9.16749936,Via Giulio Cesare Procaccini / Via Giulio Cesare Procaccini / Via Piero della Francesca Est Est,,2026-03-08T17:37:52.280833+00:00,daniel
45.48130459,9.16705423,Via Giulio Cesare Procaccini / Via Giulio Cesare Procaccini / Via Francesco Londonio West,,2026-03-08T17:38:20.040135+00:00,daniel
45.48099058,9.16652165,Via Giulio Cesare Procaccini / Corso Sempione Est,,2026-03-08T17:39:03.499462+00:00,daniel
45.48076956,9.16617316,Via Giulio Cesare Procaccini / Corso Sempione Est 2,,2026-03-08T17:39:20.028709+00:00,daniel
45.48069527,9.16552187,Corso Sempione / Via Francesco Ferrucci Est,,2026-03-08T17:40:05.981586+00:00,daniel
45.48072303,9.16527727,Corso Sempione / Via Francesco Ferrucci West,,2026-03-08T17:41:11.502386+00:00,daniel
45.48047385,9.16565278,Corso Sempione / Via Francesco Ferrucci South,,2026-03-08T17:41:45.184849+00:00,daniel
45.48042072,9.16587546,Corso Sempione / Via Francesco Ferrucci South 2,,2026-03-08T17:41:53.855639+00:00,daniel
45.47853041,9.16816231,Corso Sempione / Via Massena North,,2026-03-08T17:43:23.073214+00:00,daniel
45.47831177,9.16850636,Corso Sempione / Via Massena South,,2026-03-08T17:43:33.551551+00:00,daniel
45.47789823,9.16901172,Corso Sempione / Via Antonio Canova North,,2026-03-08T17:44:07.645912+00:00,daniel
45.47778822,9.16970446,Corso Sempione / Via Antonio Canova South,,2026-03-08T17:44:19.077070+00:00,daniel
45.47418605,9.170106,Via Mario Pagano / Via Antonio Canova Est,,2026-03-08T17:45:54.840076+00:00,daniel
45.4738376,9.16959357,Via Mario Pagano / Via Antonio Canova West,,2026-03-08T17:46:24.194022+00:00,daniel
45.4725459,9.16756919,Largo Quinto Alpini / Via Vincenzo Monti Est,,2026-03-08T17:47:43.310694+00:00,daniel
45.47223885,9.16747003,Largo Quinto Alpini / Via Vincenzo Monti South,,2026-03-08T17:48:05.240710+00:00,daniel
45.47207427,9.16770217,Largo Quinto Alpini / Via Vincenzo Monti South 2,,2026-03-08T17:48:13.472073+00:00,daniel
45.47251115,9.16707371,Largo Quinto Alpini / Via Vincenzo Monti North,,2026-03-08T17:48:23.286943+00:00,daniel
45.47214105,9.16700532,Largo Quinto Alpini / Via Vincenzo Monti West,,2026-03-08T17:48:45.403396+00:00,daniel
45.46982407,9.16595073,Via Ludovico Ariosto / Via Lorenzo Mascheroni,,2026-03-08T17:49:56.469533+00:00,daniel
45.46939242,9.16585163,Via Ludovico Ariosto / Via Lorenzo Mascheroni South,,2026-03-08T17:50:06.531451+00:00,daniel
45.46781367,9.16533962,Via Ludovico Ariosto / Via Alberto da Giussano North,,2026-03-08T17:50:36.694286+00:00,daniel
45.46735108,9.16523709,Via Ludovico Ariosto / Via Alberto da Giussano South,,2026-03-08T17:50:45.213743+00:00,daniel
45.48202536,9.16362108,Corso Sempione / Via Domodossola South,,2026-03-08T17:52:16.009431+00:00,daniel
45.48247343,9.16297058,Corso Sempione / Via Domodossola North,,2026-03-08T17:52:29.930260+00:00,daniel
45.48209491,9.16299749,Corso Sempione / Via Domodossola West,,2026-03-08T17:52:45.631107+00:00,daniel
45.48423829,9.16064382,Corso Sempione / Via Arona North,,2026-03-08T17:55:33.460204+00:00,daniel
45.48399522,9.16102009,Corso Sempione / Via Arona South,,2026-03-08T17:55:40.032212+00:00,daniel
45.48575494,9.15874337,Corso Sempione / Via Emanuele Filiberto South,,2026-03-08T17:56:28.779150+00:00,daniel
45.4861785,9.15846118,Corso Sempione / Via Emanuele Filiberto North,,2026-03-08T17:56:39.694894+00:00,daniel
45.48746706,9.15681783,Corso Sempione / Piazza Firenze South,,2026-03-08T17:58:04.461256+00:00,daniel
45.48770162,9.1564062,Corso Sempione / Piazza Firenze Center South,,2026-03-08T17:58:25.511767+00:00,daniel
45.48786922,9.15616173,Corso Sempione / Piazza Firenze Center North,,2026-03-08T17:58:44.454439+00:00,daniel
45.48795548,9.15647505,Piazza Firenze Center,,2026-03-08T17:59:38.652744+00:00,daniel
45.49105706,9.15360342,Via Lorenzo Bartolini / Viale Monte Ceneri South,,2026-03-08T18:01:41.361446+00:00,daniel
45.49142469,9.15308864,Via Lorenzo Bartolini / Viale Monte Ceneri North,,2026-03-08T18:01:53.402934+00:00,daniel
45.49567781,9.15508425,Via degli Artieri / Via Mac Mahon,,2026-03-08T18:02:47.416184+00:00,daniel
45.49615151,9.15505615,Via Mac Mahon / Via Campo dei Fiori,,2026-03-08T18:03:35.320802+00:00,daniel
45.4963254,9.1547342,Via Mac Mahon / Via Campo dei Fiori north,,2026-03-08T18:03:44.522304+00:00,daniel
45.49574865,9.15552891,Via Mac Mahon / Via Artieri,,2026-03-08T18:04:16.304388+00:00,daniel
45.49604057,9.1551137,Via Mac Mahon / Via Artieri North,,2026-03-08T18:04:54.981421+00:00,daniel
45.50224993,9.14327676,Via Console Marcello / Via Brivio,,2026-03-08T18:08:08.919957+00:00,daniel
45.50214871,9.14293047,Via Console Marcello / Via Brivio Est,,2026-03-08T18:08:29.780059+00:00,daniel
45.50132715,9.14142629,Via Monte Altissimo / Via Varesina,,2026-03-08T18:09:08.603864+00:00,daniel
45.50111098,9.14110188,Via Monte Altissimo / Via Varesina West,,2026-03-08T18:09:15.900761+00:00,daniel
45.50081045,9.14028593,Piazzale santone di Santarosa Est,,2026-03-08T18:09:39.256772+00:00,daniel
45.50097519,9.13958102,Piazzale santone di Santarosa North,,2026-03-08T18:09:45.397334+00:00,daniel
45.50232057,9.13868906,Viale Carlo Espinasse / Via Filippo Palizzi,,2026-03-08T18:10:59.238620+00:00,daniel
45.50274421,9.13871142,Viale Carlo Espinasse / Via Filippo Palizzi North,,2026-03-08T18:11:18.978695+00:00,daniel
45.50303935,9.13896023,Via Filippo Palizzi / Via Varesina South,,2026-03-08T18:11:48.854774+00:00,daniel
45.50337302,9.13914864,Via Filippo Palizzi / Via Varesina North,,2026-03-08T18:12:04.345749+00:00,daniel
45.50766463,9.1378247,Certosa / Via Mario Del Monaco Est,,2026-03-08T18:13:09.593654+00:00,daniel
45.50776938,9.13745612,Certosa / Via Mario Del Monaco North,,2026-03-08T18:13:17.680331+00:00,daniel
45.50748176,9.13736759,Certosa / Via Mario Del Monaco South,,2026-03-08T18:13:39.165333+00:00,daniel
45.50793949,9.13709344,Certosa / Via Giovanni Fattori Est,,2026-03-08T18:14:33.736326+00:00,daniel
45.50823885,9.13639321,Certosa / Via Giovanni Fattori West,,2026-03-08T18:14:40.528082+00:00,daniel
45.50890569,9.13250969,Via Antonio Mambretti 1,,2026-03-08T18:15:38.459176+00:00,daniel
45.50900246,9.13230966,Via Antonio Mambretti 2,,2026-03-08T18:15:43.749176+00:00,daniel
45.51147612,9.12833648,L.Go Boccioni South,,2026-03-08T18:16:57.792622+00:00,daniel
45.51168331,9.12801205,L.Go Boccioni North,,2026-03-08T18:17:09.190604+00:00,daniel
45.51389562,9.12554151,Via Grassi 1,,2026-03-08T18:17:46.686152+00:00,daniel
45.51397308,9.12539491,Via Grassi 2,,2026-03-08T18:17:51.308390+00:00,daniel
45.51734299,9.12025478,"Via Giovanni Battista Grassi,74",,2026-03-08T18:18:35.585864+00:00,daniel
45.51743924,9.11977118,Roserio,,2026-03-08T18:18:54.453890+00:00,daniel
45.49341628,9.14488929,Accursio North,,2026-03-08T18:20:52.609805+00:00,daniel
45.38432418998753,9.170745924659627,grandi/buozzi (north)
45.38420219254834,9.17069873047309,grandi/buozzi (south)
45.38346103630277,9.170249683862956,mazzocchi/romagna (north)
45.38328127259234,9.169899618122583,mazzocchi/romagna (south)
45.38351614080479,9.167036097992586,romagna (rozzano-east)
45.38350550217532,9.166826371208137,romagna (rozzano-west)
45.38363596203004,9.164406526891534,romagna/lazio (east)
45.38349403855869,9.16390609496807,romagna/lazio (west)
45.38242707307407,9.160646949393568,romagna/lombardia (east)
45.3820699639576,9.159656756660109,romagna/lombardia (west)
45.38150621130951,9.157702994940758,lonni/rose (east)
45.381294949706025,9.157120004074368,lonni/rose (west)
45.380999747781345,9.156113788484314,lonni/mimose (east)
45.38091097898049,9.155940576799551,lonni/mimose (west)
45.38035426498416,9.154178240275714,liguria/orchidee (east)
45.3800476777137,9.15336553596535,liguria/orchidee (west)
45.37914337114294,9.150572321196918,liguria/tigli (north)
45.37906388425509,9.150428951469582,liguria/tigli (south)
45.378533364143614,9.148902164194746,liguria/rossa (north)
45.37798389198498,9.14866475954324,liguria/rossa (south)
45.37728495526063,9.149239594066314,rossa (prima di anello-north)
45.37712565267709,9.149567621591762,rossa (prima di anello-south)
45.403304951286835,9.174388598666999,missaglia/cappio del 3 (centre)
45.40318064332268,9.174114519106617,missaglia/cappio del 3 (south)
45.444192399894575,9.139426471476224,cappio del 2
45.44851942049354,9.159923530083136,ripa di pta ticinese/d'adda (west)
45.44865973664155,9.160473275969919,ripa di pta ticinese/d'adda (east)
45.47802806617222,9.180673359693365,montello/biancamano
45.48170787565934,9.181427164664473,montello/sarpi
45.482014112262675,9.181419731099613,baiamonti (south)
45.48203614566133,9.181467591227577,baiamonti (centre-svolta a sx)
45.48221400369178,9.181493381908647,baiamonti (north)
45.48279836896383,9.181546320400813,farini/baiamonti (south)
45.48312695630412,9.181601020785775,farini/baiamonti (north-corrispondenza fermata)
45.48543628686236,9.18202033809973,farini/ferrari (south)
45.48601491048528,9.182094777519838,farini/ferrari (north)
45.48814272641752,9.182464519808953,farini/valtellina (south)
45.48861750696313,9.182724723455594,farini/valtellina (north)
45.4912976853596,9.183981245775016,farini/alserio (south)
45.491610144261955,9.184071734106379,farini/alserio (north)
45.49434751964719,9.185242376608125,farini/stelvio (south)
45.49466090804295,9.184941887480743,farini/stelvio (west)
45.495085591831106,9.183476533209564,stelvio/valtellina (east)
45.49519224124314,9.182946964584726,stelvio/valtellina (west)
45.495596015404956,9.181547853069683,stelvio/bernina
45.49564671847709,9.180962696637936,lancettina/bernina
45.49541338691083,9.177866715840343,lancetti/resegone (east)
45.495334608437574,9.177297185157988,lancetti/resegone (west)
45.49506789300519,9.173705186040051,lancetti/aprica (east)
45.49507047570267,9.17320340366282,lancetti/aprica (west)
45.49633199816962,9.171329588640404,nigra (south)
45.49682924209738,9.170919624266755,nigra (north)
45.49930786365915,9.169113598141134,imbriani/ugoni (south)
45.499526993413106,9.168793734203897,imbriani/ugoni (north)
45.47640775758382,9.121329616768488,san siro stadio M5 (uscita cappio del 16)
45.47615184116243,9.123053693136534,dessiè/axum
45.47615501310902,9.124577889835951,rospigliosi/axum
45.47603203068502,9.131830157595703,rospigliosi/palatino (west)
45.4760600948221,9.132350545430405,rospigliosi/palatino (east)
45.47597754320079,9.136906523186122,stratico/segesta (west)
45.47600207792733,9.137346851539325,stratico/segesta (centre)
45.47596777722057,9.13762595575511,stratico/segesta (east)
45.47550089788187,9.138133456605033,uscita cappio 16 segesta 
45.475505231654466,9.13865280451646,albertinelli/segesta
45.47422499649017,9.140280537334403,monte falterona (west)
45.47399454074764,9.140635096493623,monte falterona (east)
45.47248348798266,9.142580249105295,dolci/ricciarelli (north)
45.4722276829382,9.142968454408381,dolci/ricciarelli (south)
45.471461938543555,9.14392608008288,dolci/brescia (north)
45.47126490537768,9.144242502444298,dolci/brescia (south)
45.47034903832488,9.145390866100582,brescia/faruffini (north)
45.47014136884846,9.14572033724268,brescia/faruffini (south)
45.4678574202425,9.15164874568274,sanzio/ravizza (west)
45.46784240736999,9.152042454136039,sanzio/ravizza (east)
45.46721546262565,9.152819916568719,ravizza/marghera
45.46705127723759,9.153304252766995,cuneo/marghera
45.46690453055472,9.154843153245361,piemonte (west)
45.46687543178048,9.155589733316914,piemonte (east)
45.46660890845646,9.158857458693,vercelli/cimarosa (west)
45.46656645412877,9.159731124108912,vercelli/cimarosa (east)
45.46636948508765,9.162092669044778,vercelli/settimio severo (west)
45.46634990016224,9.162692921352559,vercelli/settimio severo (east)
45.46610573715488,9.165491977170323,vercelli/pta vercellina
45.466021875873295,9.166271638842128,magenta/pta vercellina
45.46586221226961,9.175248537208507,magenta/ancona (west)
45.46598947428297,9.176124255035646,magenta/ancona (east)
45.46582149928922,9.177991102443091,magenta/nerone (west)
45.46576864406908,9.178462482604193,magenta/nerone (east)
45.465724435782334,9.178917443216092,magenta/luini (west)
45.465724135844866,9.17929412537388,magenta/luini (east)
45.46564388169719,9.180221635575005,magenta/s. giovanni sul muro
45.46567855747098,9.180962399495685,meravigli/s. maria alla porta
45.465961540584935,9.184958509792237,meravigli/dante (west)
45.46586439495867,9.18543822995228,meravigli/dante (east)
45.4654212055275,9.186001556645582,dante/cordusio
45.46365730408578,9.188470821250286,orefici/mazzini (north)
45.463485775566994,9.188542279397751,orefici/mazzini (south)
45.46295057534779,9.188497549915612,mazzini/falcone (north)
45.4627476082868,9.188819264391558,gaetano giardino
45.46247102684844,9.188527608466103,mazzini/falcone (south)
45.4561287953482,9.195752356507041,pta romana/lamarmora (west)
45.45613816131354,9.196101197298953,pta romana/lamarmora (east)
45.457405754159254,9.20418365400609,lamarmora/regina margherita (west)
45.45765924713487,9.204664930256811,lamarmora/regina margherita (east)
45.457837874880894,9.204814606026027,regina margherita/bergamo (west)
45.457986690345756,9.20520758977694,regina margherita/bergamo (east)
45.457909698494745,9.205411053981688,bergamo/monte nero (west)
45.45767998147343,9.206030727343887,bergamo/monte nero (east)
45.456509748505226,9.20891352448752,bergamo/morosini (west)
45.45636588850232,9.209332525005005,bergamo/morosini (east)
45.45573965272629,9.210818595458855,bergamo/cadore (west)
45.4554703311217,9.211550019304472,bergamo/cadore (east)
45.45472906240895,9.213332079266863,comelico/friuli (west)
45.45457741349686,9.2137799187382,comelico/friuli (east)
45.45292607232851,9.214627243329613,umbria/tito livio (north)
45.4525320793585,9.214797868037083,umbria/tito livio (south)
45.450604203346295,9.223374128727588,carabelli/cuoco (west)
45.4508205805931,9.223900961965162,carabelli/cuoco (east)
45.451004391153425,9.224320754817857,cuoco/turchino (west)
45.45119856098046,9.224759500900976,cuoco/turchino (east)
45.48813153841474,9.212664968507495,Venini/Brianza (nord)
45.487709815658256,9.212260086979096,Venini/brianza (sud)
45.48675893989859,9.211215496762863,venini/palestrina (nord)
45.486488383117475,9.21097295473968,venini/palestrina (sud)
45.48557048962847,9.209966255195168,caiazzo (nord)
45.48519892540199,9.209621703323531,caiazzo (centro nord)
45.48514486159705,9.209518438273998,caiazzo (centro sud)
45.48494035890856,9.20934007137432,settembrini/caiazzo
45.482581122826474,9.20681905247406,settembrini/vitruvio (nord)
45.48225788950368,9.206520812869362,settembrini/vitruvio (sud)
45.47970810989018,9.203823957477779,cincinnato/san gregorio (sud)
45.476892191108995,9.201161241340236,lazzaretto/vittorio veneto (nord)
45.47676827037159,9.200378155212881,lazzaretto/vittorio veneto (sud)
45.4699538445117,9.170505837002016,monti/ xx settembre (sud)
45.46999569648176,9.17043878177495,monti/ xx settembre (centro sud1)
45.47004789383813,9.170330152306523,monti/ xx settembre (centro sud 2)
45.470129246381234,9.170262426531517,monti/ xx settembre (centro nord 1)
45.47018567581989,9.170145079883527,monti/ xx settembre (centro nord 2)
45.47026420669791,9.170033768209368,monti/xx settembre (nord)
45.46809977230963,9.172861155898163,piazza virgilio (nord)
45.50065419106137,9.140011948996218,santorre di santa rosa (incrocio tram 12)
45.477460556800736,9.205195734169664,tunisia/lecco (est)
45.47753170545754,9.204967192876627,tunisia/lecco (ovest)
45.48332648862092,9.205001287187073,virtuvio/lepetit (est)
45.483538441443116,9.204573362605075,vitruvio/lepetit (ovest)
45.48374860711917,9.204205025761318,duca d'aosta (est1)
45.48382947674599,9.20403067603003,duca d'aosta (est2)
45.48394855596387,9.203811825783934,duca d'aosta (est3)
45.48402378584573,9.203703144424553,duca d'aosta (centro 1)
45.48425555927306,9.203196206908599,duca d'aosta (centro 2)
45.48464494583896,9.202524740096306,duca d'aosta (centro 3)
45.48490091495803,9.20198136184805,duca d'aosta (ovest 1)
45.48501554272125,9.201836261313,duca d'aosta (ovest2)
45.485122730287586,9.20156267599239,duca d'aosta (ovest3)
45.48528719867239,9.201315984945436,duca d'aosta/filzi (sud)
45.48565765129248,9.201118172029165,duca d'aosta/filzi (nord)
45.48823557317836,9.203470901993928,filzi/tonale (sud)
45.48859942512971,9.203824283035232,ponte seveso/tonale (nord)
45.490747691838685,9.20617944592016,ponte seveso/lunigiana (sud)
45.49109150532544,9.205997764691272,ponte seveso/lunigiana (nord)
45.491472013825124,9.205381769494656,lunigiana/copernico (est)
45.49160222236291,9.204976755921386,lunigiana/copernico (ovest)
45.491972341755364,9.204343488759262,lunigiana/gioia (est)
45.49224383174897,9.203757824822757,lunigiana/gioia (ovest)
45.49507032882444,9.196431782812896,marche/arbe (est)
45.49517005203233,9.195958521242188,marche/arbe (ovest)
45.49544814969231,9.195080489989818,marche/zara (est)
45.49587421293151,9.194423842911384,marche/zara(nord)
45.49907289974692,9.19676431250475,zara/laurana (sud)
45.499452661717115,9.196450494044962,zara/laurana (nord)
45.50029735800603,9.197451488716814,zara/ala (sud)
45.500769808627695,9.19719774986311,zara/ala (nord)
45.501129045807346,9.197941917524343,istria (sud est)
45.50142117366764,9.197560028851177,istria (sud ovest)
45.50200859941275,9.198415316892092,istria (nord est)
45.50233711413781,9.198104180634882,istria (nord ovest)
45.506055523261594,9.200716787571773,testi/cà granda (est)
45.50644584033705,9.199987354775288,testi/ cà granda (ovest)
45.506999512650445,9.198379272561459,cà granda/suzzani (est)
45.50696849674324,9.19785691234828,cà granda/suzzani (ovest)
45.50899359654759,9.190053721037192,cà granda/ospdeale maggiore (percorso provvisorio del 4)
45.52433109352075,9.192086016949288,ornato/parcheggio parco nord (nord)
45.52378760777116,9.19237367659448,ornato/parcheggio parco nord (sud)
45.52340400160641,9.192294939588441,ornato/guido da velate (nord)
45.52300182315318,9.192311994465602,ornato/guido da velate (sud)
45.52160638810328,9.192177342485273,ornato/pedonale cascina california (nord)
45.521466852611866,9.192204164576241,ornato/pedonale cascina california (sud)
45.52013677851984,9.19206338503439,ornato/filicaia (nord)
45.51993851068755,9.192072102213956,ornato/filicaia (centro)
45.51969419521922,9.192073388818267,ornato/filicaia (sud)
45.51876548936874,9.191964098877317,ornato/pallanzone (nord)
45.51860756827162,9.191972851844078 ornato/pallanzone (centro)
45.51836700919944,9.191977545710225,ornato/pallanzone (sud)
45.518143855622924,9.191926648697763,ornato/achillini (nord)
45.51767826164812,9.191708236276538,ornato/achillini (sud)
45.51505462102137,9.191152798482744,ornato/hermada (nord)
45.51464652799683,9.191351975625935,ornato/hermada (sud)
45.51293481657857,9.191264149058636,graziano/majorana (nord)
45.512694156327626,9.19129370128132,graziano/majorana (centro nord)
45.512635889899926,9.191252797592593,graziano/majorana (centro sud)
45.51242412626373,9.191264380901453,graziano/majorana (sud)
45.509195011933514,9.189830732092926,ospdedale maggiore/cà granda (nord)
45.50873676470378,9.189669164311155,ospedale maggiore/cà granda (sud)
45.506453165730704,9.188410627225567,benefattori dell'ospdeale/zubiani passo carraio (nord)
45.50622795086757,9.188391311248328,benefattori dell'ospdeale/zubiani passo carraio (sud)
45.50459830294705,9.1887604129032,benefattori dell'ospedale/monzambano (nord)
45.50424462314777,9.188952889902339,benefattori dell'ospedale/monzambano (sud)
45.50370330624918,9.189121827109958,murat/valassina (nord)
45.50313083813168,9.189108764960803,murat/valassina (sud)
45.501719317508716,9.188459284025837,valassina/fermi (nord)
45.50122486403419,9.188292276281498,valassina/fermi (sud)
45.49946969602634,9.187497908615283,valassina/ingresso LIDL (nord)
45.499239347969386,9.187439955191234,valassina/ingresso LIDL (sud)
45.49845700957497,9.187057389016507,valassina curva verso maciachini (nord)
45.49825332467775,9.186698437588158,valassina curva verso maciachini (sud)
45.4982752596328,9.186432912446126,incrocio via crespi (est)
45.498213442920054,9.185971088344404,incrocio via crespi (ovest)
45.4981385285598,9.184989745009162,incrocio via imbonati (est)
45.497864997209845,9.184911596552402,incrocio via imbonati (sud)
45.49770500631931,9.184972387675364,imbonati/maciachini (nord)
45.497468332699945,9.185143121891137,imbonati/maciachini (centro nord)
45.49737593862708,9.185245538734058,imbonati/maciachini (centro sud)
45.497143278236464,9.185410498546544,menabrea/maciachini (sud)
45.49488551120526,9.18545701210413,farini/stelvio (nord)
45.470483414994526,9.183279610562247,buonaparte/quintino sella (nord)
45.46915339570457,9.18170994351859,piazza castello pedonale
45.46787242434523,9.179474748591813,buonaparte/ricasoli (nord)
45.46996340805288,9.183387025622277,buonaparte/quintino sella (sud)
45.47011247613876,9.183391048935144,buonaparte/quintino sella (centro)
45.4523352750722,9.178661853386366,gorizia/xxiv maggio (west)
45.45240762102421,9.17922035808238,gorizia/xxiv maggio (east)
45.45237347254446,9.179425249055697,xxiv maggio (cappio del 10 west)
45.45235356487781,9.17976431612725,xxiv maggio (cappio del 10 east)
45.45228329739724,9.179690625505527,xxiv maggio (cappio del 10 south)
45.45237969249496,9.179701404849151,xxiv maggio (cappio del 10 north)
45.45234800569938,9.180146811016437,xxiv maggio (davanti all'arco west)
45.45229295765813,9.180459403888483,xxiv maggio (davanti all'arco east)
45.45225853559733,9.181255013359522,col di lana/xxiv maggio
45.452216111968475,9.181633043098852,col di lana/custodi
45.45215194063343,9.182444562597173,col di lana (civico 3-west)
45.45216167513591,9.182690412055258,col di lana (civico 3-east)
45.45200039757422,9.184390306965458,col di lana/col moschin (west)
45.4519873010706,9.184915911011847,col di lana/col moschin (east)
45.45095969103599,9.190115581432552,bligny/bocconi (west)
45.450953053545824,9.190678077826563,bligny/bocconi (east)
45.45092425483015,9.19378364916882,bligny/vittadini (west)
45.450949502576115,9.194385985455284,bligny/vittadini (east)
45.450924791013264,9.196427198602647,bligny/ripamonti (west)
45.45094576215439,9.197058435089618,bligny/ripamonti (east)
45.45174516142988,9.202597130652087,sabotino/lodi (south)
45.45232570113894,9.20271718017051,sabotino/lodi (north)
45.45760989651847,9.205658814757632,bergamo/monte nero (south)
45.45803413903913,9.205795782690444,bergamo/monte nero (north)
45.45960654309282,9.207099989717317,monte nero/spartaco (south)
45.45992874255318,9.207279227985293,monte nero/spartaco (north)
45.46067513593519,9.207791329294896,monte nero/anfossi (south)
45.4610344739417,9.207685423321314,monte nero/anfossi (north)
45.47430390560489,9.205873285713464,oberdan (east)
45.4746819247898,9.205040718688615,oberdan (centre-east)
45.47480904164046,9.204792243388642,oberdan (centre-west)
45.47489007781866,9.204457612325754,oberdan (west)
45.47644546895611,9.201231925279695,vittorio veneto/lazzaretto (east)
45.47674290450158,9.200438421604437,vittorio veneto/lazzaretto (west)
45.47691120480147,9.20119495161011,vittorio veneto/lazzaretto (north)
45.48029215001057,9.196192238133243,galilei/repubblica (south)
45.48043480242051,9.19644912227788,galilei/repubblica (centre-south)
45.48053323693754,9.196692172804205,galilei/repubblica (centre-north)
45.48067683381497,9.19692312156535,galilei/repubblica (north)
45.480843639993495,9.197282028505624,galilei/liberazione (south)
45.48112199874972,9.197682711526491,galilei/liberazione (north)
45.48389411837095,9.200022042244589,filzi/pirelli (south)
45.4842884669551,9.20024343948296,filzi/pirelli (north)
45.48525614995531,9.200879864857901,filzi/galvani (south)
45.48566933284227,9.201100433633176,filzi/galvani (north)
45.48823248831031,9.203476688696087,filzi/tonale (south)
45.48860246092031,9.203830475982707,filzi/tonale (north)
45.49072646970093,9.206170310789638,ponte seveso/lunigiana (south)
45.491074407330125,9.206032465575895,ponte seveso/lunigiana (north)
45.491350365848064,9.205544563156911,lunigiana (cappio del 10)
45.482319788843526,9.18131962966393,ceresio/baiamonti (west)
45.48266385362254,9.181098615652916,ceresio (south)
45.482980910220036,9.180821065174694,ceresio (north)
45.4841175149933,9.180030021650847,ceresio/monumentale
45.46196366016575,9.217384815333647,umbria/22 marzo (south)
45.45974011855229,9.217422784759234,umbria (ingresso parco 8 marzo,north)
45.45952167121886,9.21747626123591,umbria (ingresso parco 8 marzo,south)
45.45915508043676,9.217425511870678,umbria/monte ortigara (north)
45.4589307690761,9.217484282437653,umbria/monte ortigara (centre-north)
45.45865629067057,9.217387881165344,umbria/monte ortigara (centre-south)
45.45847385328179,9.217410102256947,umbria/monte ortigara (south)
45.458379978117186,9.217408770716014,umbria/arconati (west)
45.45813612930224,9.217748240661095,umbria/arconati (east)
45.457694566061654,9.219049657546487,arconati/martini (west)
45.4575336021103,9.219696251297423,arconati/martini (east)
45.457507838659545,9.221459002918143,martini/caposile (west)
45.4575556202092,9.222105718675031,martini/caposile (east)
45.45708744278469,9.221739427011046,martini/sanfelice
45.45741841694749,9.223824138567412,molise 1 (cappio del 12)
45.45741124630435,9.22374446671245,molise 2 (cappio del 12)
45.48775652873375,9.166087059907996,diocleziano/mahon (south)
45.48799318841941,9.165718616639587,diocleziano/mahon (north)
45.489274837218076,9.164089459011917,mahon/principe eugenio (south)
45.48949528160064,9.163742847996632,mahon/principe eugenio (north)
45.491120036528756,9.161653087314336,mahon/caracciolo (south)
45.49138402992718,9.161256633889332,mahon/caracciolo (north)
45.49389725717323,9.15799395906339,mahon/monte ceneri (south)
45.49431500287416,9.157387231010702,mahon/monte ceneri (north)
45.46620115322177,9.175374508469273,monti/ancona
45.46749618115946,9.17373016431862,monti/virgilio (south)
45.46769937614786,9.173406995544934,monti/virgilio (north)
45.4678666527516,9.173305761247985,monti/virgilio 1 (south)
45.46783426241897,9.173229579336732,monti/virgilio 2 (south)
45.47432166606408,9.164727565789393,monti/savoia cavalleria (south)
45.474709199334725,9.164185737695371,monti/savoia cavalleria (north)
45.47771225632321,9.160473775854303,6 febbraio (south)
45.47805256745582,9.160127441472495,6 febbraio (north)
45.48006119308866,9.16027860282863,boezio/domodossola (south)
45.480328930783855,9.160294754968868,boezio/domodossola (north)
45.48061560232299,9.160753497861252,domodossola/procida (south)
45.48084978368871,9.161056913880806,domodossola/procida (north)
45.47493430237548,9.220878407965992,pascoli/erba (west)
45.47507927243229,9.22119953470933,pascoli/erba (centre-west)
45.475123386403915,9.221326833472634,pascoli/erba (centre-east)
45.47527757245134,9.221640411373636,pascoli/erba (east)
45.47592894756595,9.223329736165164,pascoli/romagna (west)
45.47628043369462,9.22413189567017,pascoli/romagna (east)
45.4790286867687,9.225716248082882,da vinci/spinoza (south)
45.479299255980735,9.226008830175482,da vinci/spinoza (north)
45.47928392246524,9.226573955179369,da vinci/ampere (west)
45.479312631878486,9.226801596599524,da vinci/ampere (east)
45.479302608911425,9.229736361601741,bonardi/ponzio
45.4793347486494,9.230309761693649,bassini/ponzio
45.480288589771035,9.234077667950457,bassini/golgi (west)
45.48051985636801,9.23457329239234,bassini/golgi (east)
45.481212661158665,9.236357554102634,bassini/peroni (west)
45.48142625843197,9.236812459683328,bassini/peroni (east)
45.48163905838505,9.237372867212938,bassini (svolta lambrate)
45.48198872768167,9.237672083238168,viotti/bassini (north)
45.481735784492365,9.237638878907237,viotti/bassini (south)
45.48186197496755,9.237891558355475,viotti/bassini (east)
45.48200090477238,9.238338102286273,bassini/rimembranze di lambrate (sotto ponte,west)
45.48211048716237,9.23863276991703,rodano/rimembranze di lambrate (west)
45.48225128588093,9.239224305007179,rodano/rimembranze di lambrate (east)
45.48858153910343,9.18291244401188,bassi/farini (east)
45.488993218641035,9.18873985366382,lambertenghi/borsieri
45.48900800053716,9.189304683807359,perasto/borsieri
45.49229446281898,9.19291814283901,zara/stelvio (sud)
45.49286331318296,9.192723764186425,zara/stelvio (nord)
45.49531686496844,9.19464453518807,zara/marche (sud)
45.506730807196476,9.200568108519885,testi/cà granda (nord)
45.5081410375035,9.201897507631278,testi/pianell (sud)
45.508610412608974,9.201630627832204,testi/pianell (nord)
45.51100038206673,9.203512079189172,testi/santa marcellina (sud)
45.51147122980737,9.203250727920851,testi/santa marcellina (nord)
45.511557902915705,9.20332692578927,testi/santa marcellina (anello di inversione)
45.5139994415144,9.205205345071768,testi/pulci
45.51494390631506,9.205720505488058,testi/rodi (sud)
45.51511472458576,9.206169178727858,testi/rodi (est)
45.51437220421714,9.207788917268585,pulci/sarca
45.51449941262755,9.208425908222747,emanueli/sarca
45.5139899403831,9.21010625942384,emenueli/pirelli (ovest)
45.51388656679839,9.21061368890858,emanueli/pirelli (est)
45.51344940760803,9.212036589996389,emanueli/innovazione (ovest)
45.513351287115064,9.212524016868228,emanueli/innovazione (est)
45.5135243980819,9.214100775996656,emanueli/caldirola (sud)
45.51379129120685,9.214235557001173,emenueli/caldirola (nord)
45.51402253239121,9.220801418599775,emanueli/gilardi (ovest)
45.514029207649905,9.221041122605092,emanueli/gilardi (est)
45.51355375200465,9.224657373784718,pelitti/monza (ovest)
45.51351757099145,9.22525148308833,pelitti/monza (est)
45.51394217729176,9.227784224011994,emilio vergani/bigiogera (ovest)
45.514026762698805,9.228215160643007,emilio vergani/bigiogera (est)
45.51437907055738,9.231239566503119,tremelloni/anassagora (ovest)
45.514599442082044,9.231725716899348,tremelloni/anassagora (est)
45.51489993762208,9.233269085873923,tremelloni/ponte nuovo (ovest)
45.51499955037139,9.233688851586605,tremelloni/ponte nuovo (est)
45.515393057061004,9.23536347588405,tremelloni/gassman (ovest)
45.51552559689771,9.235482033627223,tremelloni/gassman (est)
45.515705025425916,9.235888661647909,tremelloni/ingresso parco sandra e raiomndo (est)
45.5155626780992,9.235591164077222,tremelloni/ingresso parco sandra e raimondo (ovest)
45.51661322530636,9.24043531446084,tremelloni/tognazzi (ovest)
45.516770272242674,9.240998800260966,tremelloni/tognazzi (est)
45.51724550481895,9.24334709419672,tremelloni/adriano (ovest)
45.51704531538932,9.243929970518463,tremelloni/adriano (sud)
45.51570426110739,9.244566419760762,adriano/nenni (nord)
45.51534707661724,9.24479700955055,adriano/nenni (sud)
45.51548480491308,9.205522707409145,testi/esperia (nord)
45.51618539154559,9.206440067905183,testi/asturie (sud)
45.51666999614049,9.206199067568011,testi/asturie (nord)
45.518311802187476,9.207650503442222,testi/san glicerio (sud)
45.51877553571842,9.207386976404338,testi/san glicerio (nord)
45.52226302000405,9.209882312722183,testi/ponale (sud)
45.522695550485935,9.209616622794652,testi/ponale (nord)
45.52614903991442,9.212048146363344,testi/bignami (sud)
45.526652444318515,9.211850287450208,testi/bignami (nord)
45.528628056496814,9.212956165702245,testi/inizio parco nord (sud)
45.52881610307294,9.213002575938928,testi/inizio parco nord (nord)
45.53310737850131,9.215200437191704,testi/clerici (sud)
45.533686061120505,9.215466386531508,testi/clerici (nord)
45.538905649683095,9.218417091637297,testi/gorki (sud)
45.53911512274392,9.218366129665032,testi/gorki (nord)
45.54573287943677,9.218118554539457,gorki/canzio (sud)
45.54599665675359,9.218030023545394,gorki/canzio (sud)
45.54754468144628,9.217827495303577,gorki/turoldo (sud)
45.54810489258287,9.217754735519327,gorki/turoldo (nord)
45.54935306834582,9.217597199559549,gorki/cavalcavia A4 (nord)
45.55135182597867,9.217651656729505,gorki/martinelli (sud)
45.55155563410597,9.217523477668538,libertà/martinelli (nord)
45.55258635639933,9.217043814377803,libertà/cantore (sud)
45.55288402088359,9.216819629317529,libertà/cantore (nord)
45.55433377175269,9.216193351312839,libertà/carducci (sud)
45.554704859710405,9.215953171850678,libertà/carducci (nord)
45.55591177745512,9.215544124633825,libertà/martiri di fossoli (sud)
45.556221109491695,9.21543002168904,libertà/martiri di fossoli (nord)
45.55669645744872,9.215324448872012,libertà/sant'ambrogio (sud)
45.55683852734149,9.215225876544574,libertà/sant'ambrogio (nord)
45.55967363962715,9.213905535502674,risorgimento/monte ortigara (sud)
45.559913979549215,9.21350127897096,risorgimento/monte ortigara (nord)
