lat,lon,name,notes,added_at,added_by
45.46806583003343, 9.177668581548524, Piazzale Cadorna Est1,
45.468027268471516, 9.17744662875355, Piazzale Cadorna Est2,
45.467989448324865, 9.17695510250343, Piazzale Cadorna West1,
45.4680285393238, 9.17663836274877, Piazzale Cadorna West2,
45.46772489618326, 9.176828093050323, Piazzale Cadorna South1,
45.4677913328671, 9.173858201691766, Piazza Virgilio Est,
45.46759253032219, 9.179814453351748, Foro Buonaparte - Via Ricasoli Est,
45.4676028740004, 9.179284543564416, Foro Buonaparte - Via Ricasoli West,
45.46792286577095, 9.181731372883384, Largo Cairoli - Foro Buonaparte West,
45.46830942143114, 9.182523965630908, Largo Cairoli Est,
45.468181108317765, 9.182012001284045, Largo Cairoli West,
45.468623237258335, 9.183211532266409, Largo Cairoli - Via Cusani South,
45.46857856271902, 9.182982873957958, Largo Cairoli - Via Cusani North,
45.46891382,9.18296034,Largo Cairoli - Foro Buonaparte Est,,2026-03-04T12:54:45.437245+00:00,daniel
45.468888,9.18499348,Via Cusani / Via Ponte Vetero Est,,2026-03-04T13:17:14.294911+00:00,daniel
45.4691184,9.18529794,Via Ponte Vetero / Via Cusani North,,2026-03-04T13:17:44.619040+00:00,daniel
45.46876162,9.18541403,Via Broletto / Via Cusani,,2026-03-04T13:18:18.324126+00:00,daniel
45.46563142,9.18690876,Piazza Cordusio est,,2026-03-04T13:20:10.849948+00:00,daniel
45.4675674,9.19011688,Piazza della Scala north,,2026-03-04T13:21:00.551357+00:00,daniel
45.4672327,9.18981881,Piazza della scala south,,2026-03-04T13:21:12.271190+00:00,daniel
45.47016421,9.19286458,Via Alessandro Manzoni / Via Monte Napoleone north,,2026-03-04T13:22:17.721571+00:00,daniel
45.4699315,9.19268477,Via Alessandro Manzoni / Via Monte Napoleone south,,2026-03-04T13:22:25.593802+00:00,daniel
45.47261218,9.19517884,Piazza Cavour north,,2026-03-04T13:23:05.208069+00:00,daniel
45.47217455,9.19502233,Piazza Cavour south,,2026-03-04T13:23:20.377469+00:00,daniel
45.47558954,9.19464894,Piazza Stati Uniti d'America south,,2026-03-04T13:23:54.188271+00:00,daniel
45.47600435,9.19474344,Piazza Stati Uniti d'America north,,2026-03-04T13:24:02.485484+00:00,daniel
45.47813898,9.19733471,Piazza della Repubblica,,2026-03-04T13:25:15.677919+00:00,daniel
45.46640277,9.16490852,Piazzale Francesco Baracca / Corso Vercelli north,,2026-03-04T13:35:02.296704+00:00,daniel
45.46616476,9.16522262,Piazzale Francesco Baracca / Corso Vercelli est,,2026-03-04T13:35:27.819209+00:00,daniel
45.46619203,9.16445118,Piazzale Francesco Baracca / Corso Vercelli west,,2026-03-04T13:35:34.548472+00:00,daniel
45.46591836,9.16479462,Viale San Michele del Carso / Corso Vercelli south,,2026-03-04T13:36:06.905813+00:00,daniel
45.45959598,9.16564979,Viale Coni Zugna / Via Vincenzo Foppa north,,2026-03-04T13:38:12.144531+00:00,daniel
45.45940544,9.16600558,Viale Coni Zugna / Via Vincenzo Foppa south,,2026-03-04T13:38:19.065475+00:00,daniel
45.45766108,9.16859845,Viale Coni Zugna / Via Andrea Solari north,,2026-03-04T13:39:21.395013+00:00,daniel
45.45746902,9.16893859,Viale Coni Zugna / Via Andrea Solari south,,2026-03-04T13:39:29.805522+00:00,daniel
45.45728655,9.1691566,Viale Coni Zugna / Via Andrea Solari south 2,,2026-03-04T13:39:43.650194+00:00,daniel
45.45707726,9.16907396,Viale Coni Zugna / Via Andrea Solari west,,2026-03-04T13:40:06.600308+00:00,daniel
45.45692154,9.16976343,Viale Coni Zugna / Via Arcangelo Ghisleri,,2026-03-04T13:41:10.714375+00:00,daniel
45.45536466,9.17208084,Viale Coni Zugna / Corso Cristoforo Colombo north,,2026-03-04T13:41:54.304720+00:00,daniel
45.45530489,9.17269975,Viale Coni Zugna / Corso Cristoforo Colombo est,,2026-03-04T13:42:08.030799+00:00,daniel
45.45504105,9.17266548,Viale Coni Zugna / Corso Cristoforo Colombo south,,2026-03-04T13:42:16.648055+00:00,daniel
45.45495542,9.17223225,Viale Coni Zugna / Corso Cristoforo Colombo west,,2026-03-04T13:43:01.527407+00:00,daniel
45.44250698,9.1234571,Via Francesco Gonin / Via Pietro Giordani west,,2026-03-04T13:45:15.021466+00:00,daniel
45.44271832,9.12403591,Via Francesco Gonin / Via Pietro Giordani est,,2026-03-04T13:45:25.479313+00:00,daniel
45.44413352,9.12849084,Via Francesco Gonin / Piazzale Tirana west,,2026-03-04T13:46:07.537686+00:00,daniel
45.44467351,9.13007135,Via Giambellino / Piazzale Tirana est,,2026-03-04T13:46:32.543053+00:00,daniel
45.4445089,9.12964947,Piazzale Tirana,,2026-03-04T13:47:14.938217+00:00,daniel
45.44427368,9.12882317,Piazzale Tirana west,,2026-03-04T13:47:51.901997+00:00,daniel
45.44685126,9.13690079,Via Giambellino / Largo Giambellino west,,2026-03-04T13:50:50.429803+00:00,daniel
45.44698344,9.13722334,Via Giambellino / Largo Giambellino west 2,,2026-03-04T13:50:58.550256+00:00,daniel
45.44705588,9.13753249,Via Giambellino / Largo Giambellino est 2,,2026-03-04T13:51:09.494256+00:00,daniel
45.44719606,9.1378738,Via Giambellino / Largo Giambellino est,,2026-03-04T13:51:16.913894+00:00,daniel
45.44768061,9.13946679,Largo Giambellino / Largo Gelsomini est,,2026-03-04T13:52:48.609403+00:00,daniel
45.44790274,9.1400672,Largo Giambellino / Largo Gelsomini est 2,,2026-03-04T13:53:01.175004+00:00,daniel
45.47989971,9.20401096,Piazza Cincinnato north,,2026-03-06T00:04:11.208801+00:00,daniel
45.47878845,9.20293339,Via Lazzaretto Viale Tunisia north,,2026-03-06T00:05:23.196614+00:00,daniel
45.47832962,9.20255788,Via Lazzaretto Viale Tunisia south,,2026-03-06T00:05:43.445893+00:00,daniel
45.4783716,9.20319155,Viale Tunisia Via Lazzaretto est,,2026-03-06T00:06:01.916723+00:00,daniel
45.47665721,9.2068588,Viale Tunisia / Corso Buenos Aires West,,2026-03-06T00:06:51.231491+00:00,daniel
45.47644428,9.20739859,Viale Tunisia / Corso Buenos Aires Est,,2026-03-06T00:07:02.415900+00:00,daniel
45.47607695,9.20811944,Viale regina Giovanna 2,,2026-03-06T00:09:19.910442+00:00,daniel
45.47596611,9.20843326,Viale Regina Giovanna 3,,2026-03-06T00:09:46.082079+00:00,daniel
45.47479245,9.21090357,P.Za Otto Novembre Est,,2026-03-06T00:11:00.358926+00:00,daniel
45.4746152,9.21137094,P.Za Otto Novembre West,,2026-03-06T00:11:07.585889+00:00,daniel
45.47312556,9.21454936,Piazza Maria Adelaide di Savoia Est,,2026-03-06T00:12:09.910751+00:00,daniel
45.4728702,9.21455942,Piazza Maria Adelaide di Savoia South,,2026-03-06T00:12:27.432067+00:00,daniel
45.47301519,9.21536341,Piazza Maria Adelaide di Savoia North,,2026-03-06T00:12:45.559641+00:00,daniel
45.47300384,9.21491213,Piazza Maria Adelaide di Savoia Center West,,2026-03-06T00:12:55.608170+00:00,daniel
45.47292951,9.21508044,Piazza Maria Adelaide di Savoia Center Est,,2026-03-06T00:13:06.621092+00:00,daniel
45.47295397,9.21499327,Piazza Maria Adelaide di Savoia Center,,2026-03-06T00:13:19.816600+00:00,daniel
45.47328126,9.21668977,Via Degli Scipioni,,2026-03-06T00:14:13.623650+00:00,daniel
45.47321776,9.21748102,Piazza Ascoli Center south,,2026-03-06T00:14:56.918781+00:00,daniel
45.47363672,9.2176567,Piazza Ascoli Center north,,2026-03-06T00:15:51.743347+00:00,daniel
45.47379673,9.21794504,Piazza Ascoli North,,2026-03-06T00:16:13.504351+00:00,daniel
45.47359236,9.21746626,Piazza Ascoli Center north 2,,2026-03-06T00:16:55.471070+00:00,daniel
45.47107952,9.22341809,Piazza Ferravilla,,2026-03-06T00:20:35.028995+00:00,daniel
45.47093474,9.22419928,Via Beato Angelico,,2026-03-06T00:21:06.339100+00:00,daniel
45.47093342,9.22395989,Via Beato Angelico 1,,2026-03-06T00:21:22.695404+00:00,daniel
45.4709234,9.22987282,Via Beato Angelico / Via Giovanni Antonio Amadeo West,,2026-03-06T00:22:51.046100+00:00,daniel
45.4709658,9.23043475,Via Beato Angelico / Via Giovanni Antonio Amadeo Est,,2026-03-06T00:22:56.294350+00:00,daniel
45.47096485,9.23485905,Via Giovanni Antonio Amadeo / Via Temistocle Calzecchi Est,,2026-03-06T00:24:14.977913+00:00,daniel
45.47099209,9.23533112,Via Giovanni Antonio Amadeo / Via Temistocle Calzecchi Est,,2026-03-06T00:24:20.912832+00:00,daniel
45.4724593,9.2114266,Via Nino Bixio / Via Pisacane Est,,2026-03-06T00:28:58.171918+00:00,daniel
45.47238171,9.21089619,Via Nino Bixio / Via Pisacane West,,2026-03-06T00:29:05.205071+00:00,daniel
45.47200652,9.20693591,Via Nino Bixio / Via Piave Est,,2026-03-06T00:29:37.224560+00:00,daniel
45.47212877,9.20660533,Via Nino Bixio / Via Piave North,,2026-03-06T00:30:05.553299+00:00,daniel
45.47175759,9.20666501,Via Nino Bixio / Via Piave South,,2026-03-06T00:30:28.089742+00:00,daniel
45.47086794,9.20672268,Via Piave / Via Bernardi North,,2026-03-06T00:31:19.867467+00:00,daniel
45.47058207,9.20680784,Via Piave / Via Bernardi South,,2026-03-06T00:31:47.656575+00:00,daniel
45.46827675,9.20694999,Piazza Tricolore North,,2026-03-06T00:34:43.082563+00:00,daniel
45.46753464,9.20709819,Piazza Tricolore South,,2026-03-06T00:35:24.262108+00:00,daniel
45.46272867,9.20754544,Piazza Cinque Giornate North,,2026-03-06T00:37:19.920869+00:00,daniel
45.46197857,9.2076581,Piazza Cinque Giornate South,,2026-03-06T00:37:30.929491+00:00,daniel
45.46226967,9.20805775,Piazza Cinque Giornate Est,,2026-03-06T00:37:38.207251+00:00,daniel
45.46209829,9.20731746,Piazza Cinque Giornate Center Est,,2026-03-06T00:38:10.019821+00:00,daniel
45.46245025,9.20698218,Piazza Cinque Giornate Center West,,2026-03-06T00:38:17.298286+00:00,daniel
45.46226195,9.20640081,Piazza Cinque Giornate West,,2026-03-06T00:38:43.347449+00:00,daniel
45.46189218,9.20674011,Piazza Cinque Giornate Very South,,2026-03-06T00:39:27.971040+00:00,daniel
45.46183067,9.20737579,Piazza Cinque Giornate Very South 2,,2026-03-06T00:39:51.801428+00:00,daniel
45.46231555,9.2033726,C.So P.Ta Vittoria (Camera Del Lavoro),,2026-03-06T00:41:08.595777+00:00,daniel
45.46229288,9.20280933,28 C.so di Porta Vittoria,,2026-03-06T00:41:29.044701+00:00,daniel
45.46232299,9.20247674,27 C.so di Porta Vittoria,,2026-03-06T00:41:43.482659+00:00,daniel
45.46230888,9.20192957,22 C.so di Porta Vittoria,,2026-03-06T00:42:00.597497+00:00,daniel
45.46235217,9.20114905,C.so di Porta Vittoria Tribunale,,2026-03-06T00:42:19.171759+00:00,daniel
45.46233053,9.20069844,C.so di Porta Vittoria Tribunale West,,2026-03-06T00:42:27.813949+00:00,daniel
45.46240487,9.19828042,Corso Porta Vittoria / Via Francesco Sforza Est,,2026-03-06T00:43:13.254432+00:00,daniel
45.46256766,9.19788614,Corso Porta Vittoria / Via Francesco Sforza West,,2026-03-06T00:43:19.072722+00:00,daniel
45.46286784,9.19743016,L.Go Augusto Est,,2026-03-06T00:44:02.555989+00:00,daniel
45.46303229,9.19677436,L.Go Augusto West,,2026-03-06T00:44:07.125648+00:00,daniel
45.46303229,9.19583693,Via Verziere Est,,2026-03-06T00:44:21.668490+00:00,daniel
45.46295796,9.19513151,Corso Europa North,,2026-03-06T00:44:48.647928+00:00,daniel
45.46292508,9.19517711,Corso Europa South,,2026-03-06T00:44:55.646113+00:00,daniel
45.46279898,9.19457763,Corso Europa West,,2026-03-06T00:45:16.854802+00:00,daniel
45.46259668,9.19410959,Via Larga / Piazza Santo Stefano,,2026-03-06T00:45:34.552167+00:00,daniel
45.462354,9.19366166,VIa Larga / Via Bergamini,,2026-03-06T00:45:47.236734+00:00,daniel
45.46261009,9.19370592,Via San Clemente / Via Larga Est,,2026-03-06T00:46:10.270551+00:00,daniel
45.46257982,9.19366971,Via San Clemente / Via Larga West,,2026-03-06T00:46:16.565199+00:00,daniel
45.46118426,9.19171035,Via Larga / Via Flavio Baracchini Est,,2026-03-06T00:46:44.657506+00:00,daniel
45.46092046,9.19138312,Via Larga / Via Flavio Baracchini West,,2026-03-06T00:46:56.573432+00:00,daniel
45.46086964,9.19123426,Via Larga / Via Panano Est,,2026-03-06T00:47:13.742153+00:00,daniel
45.46081619,9.1912128,Via Larga / Via Panano West,,2026-03-06T00:47:18.413272+00:00,daniel
45.46073714,9.19075012,Via Larga / Via Panano West West,,2026-03-06T00:47:22.995029+00:00,daniel
45.46117457,9.18906167,Via Albricci / Piazza Missori Est,,2026-03-06T00:48:06.753353+00:00,daniel
45.46150019,9.18848097,Piazza Missori North,,2026-03-06T00:48:19.534666+00:00,daniel
45.46093703,9.18843135,Piazza Missori South 2,,2026-03-06T00:48:29.951876+00:00,daniel
45.46120247,9.18857552,Piazza Missori South,,2026-03-06T00:48:45.775681+00:00,daniel
45.46062032,9.18830395,Piazza Missori South 3,,2026-03-06T00:49:18.130317+00:00,daniel
45.46039094,9.18828383,Piazza Missori South 4,,2026-03-06T00:49:24.651535+00:00,daniel
45.46043579,9.18854333,Piazza Missori South Est,,2026-03-06T00:49:35.533888+00:00,daniel
45.46050406,9.18840554,Piazza Missori South Est 2,,2026-03-06T00:49:44.820837+00:00,daniel
45.45755923,9.18755963,Corso Italia / Piazza Sant'Eufemia North,,2026-03-06T00:50:17.013745+00:00,daniel
45.45721037,9.18755695,Corso Italia / Piazza Sant'Eufemia South,,2026-03-06T00:50:23.769365+00:00,daniel
45.45622125,9.18743223,Corso Italia / Via Santa Sofia North,,2026-03-06T00:50:50.905877+00:00,daniel
45.45586332,9.18739066,Corso Italia / Via Santa Sofia South,,2026-03-06T00:50:55.938820+00:00,daniel
45.45348186,9.18693602,Corso Italia / Via Marco Burigozzo North,,2026-03-06T00:51:27.672946+00:00,daniel
45.45321042,9.18694407,Corso Italia / Via Marco Burigozzo South,,2026-03-06T00:51:31.809040+00:00,daniel
45.45262247,9.18679655,Corso Italia / Viale Gian Galeazzo North,,2026-03-06T00:51:49.225455+00:00,daniel
45.45215458,9.18672748,Viale Gian Galeazzo North,,2026-03-06T00:52:20.680624+00:00,daniel
45.45205721,9.18660611,Piazzale Porta Ludovica Center,,2026-03-06T00:52:33.836357+00:00,daniel
45.45174903,9.18708891,Porta Ludovica Est,,2026-03-06T00:52:44.087867+00:00,daniel
45.45186157,9.18618836,Porta L,,2026-03-06T00:52:51.214825+00:00,daniel
45.4515561,9.18656319,Porta Ludovica South,,2026-03-06T00:53:08.811237+00:00,daniel
45.44977923,9.18596976,Via Pietro Teuliè North,,2026-03-06T00:53:47.602121+00:00,daniel
45.4494736,9.18584168,Via Gian Carlo Castelbarco,,2026-03-06T00:54:07.868990+00:00,daniel
45.44906595,9.18565795,Via Gian Carlo Castelbarco South 1,,2026-03-06T00:54:27.585131+00:00,daniel
45.44889782,9.1856432,Via Gian Carlo Castelbarco South 2,,2026-03-06T00:54:32.596339+00:00,daniel
